[{"fecha":"2026-01-15","local_id":"25","fk_region":"6","fk_comuna":"57","fk_localidad":"13","local_nombre":"LA CRUZ","comuna_nombre":"LA CRUZ","localidad_nombre":"LA CRUZ","local_direccion":"21 DE MAYO N\u00b0 5481","funcionamiento_hora_apertura":"09:00:00","funcionamiento_hora_cierre":"21:00:00","local_telefono":"+56332254902","local_lat":"-32.8252324978247","local_lng":"-71.2268391982971","funcionamiento_dia":"jueves"},{"fecha":"2026-01-15","local_id":"59","fk_region":"6","fk_comuna":"70","fk_localidad":"54","local_nombre":"AHUMADA","comuna_nombre":"QUILPUE","localidad_nombre":"LOS PINOS","local_direccion":"LAS BARRANCAS 2491 L 3C Y 4D","funcionamiento_hora_apertura":"09:00:00","funcionamiento_hora_cierre":"21:00:00","local_telefono":"+56232740640","local_lat":"-33.0661975068523","local_lng":"-71.4228941507292","funcionamiento_dia":"jueves"},{"fecha":"2026-01-01","local_id":"81","fk_region":"6","fk_comuna":"80","fk_localidad":"41","local_nombre":"AHUMADA","comuna_nombre":"VI\u00d1A DEL MAR","localidad_nombre":"VI\u00d1A DEL MAR URGENCIA","local_direccion":"AV. LIBERTAD N\u00b0 335","funcionamiento_hora_apertura":"00:00:00","funcionamiento_hora_cierre":"23:59:00","local_telefono":"+560226313145","local_lat":"-33.0189172526154","local_lng":"-71.5510733225955","funcionamiento_dia":"miercoles"},{"fecha":"2026-01-01","local_id":"94","fk_region":"6","fk_comuna":"80","fk_localidad":"41","local_nombre":"CRUZ VERDE","comuna_nombre":"VI\u00d1A DEL MAR","localidad_nombre":"VI\u00d1A DEL MAR URGENCIA","local_direccion":"AV. VALPARAISO N\u00b0 404","funcionamiento_hora_apertura":"00:00:00","funcionamiento_hora_cierre":"23:59:00","local_telefono":"+56322714044","local_lat":"-33.024369299178","local_lng":"-71.5569460874684","funcionamiento_dia":"miercoles"},{"fecha":"2026-01-15","local_id":"100","fk_region":"6","fk_comuna":"80","fk_localidad":"35","local_nombre":"CRUZ VERDE","comuna_nombre":"VI\u00d1A DEL MAR","localidad_nombre":"RECREO","local_direccion":"J.M.CARRERA N\u00b0 201","funcionamiento_hora_apertura":"09:00:00","funcionamiento_hora_cierre":"21:00:00","local_telefono":"+56322620782","local_lat":"-33.0275549545313","local_lng":"-71.5734684105632","funcionamiento_dia":"jueves"},{"fecha":"2026-01-15","local_id":"126","fk_region":"6","fk_comuna":"80","fk_localidad":"36","local_nombre":"SALCOBRAND","comuna_nombre":"VI\u00d1A DEL MAR","localidad_nombre":"RE\u00d1ACA","local_direccion":"AVDA. BORGO\u00d1O N\u00b0 14410","funcionamiento_hora_apertura":"09:00:00","funcionamiento_hora_cierre":"20:00:00","local_telefono":"+562833912","local_lat":"-32.9726899757208","local_lng":"-71.5439340847724","funcionamiento_dia":"jueves"},{"fecha":"2026-01-01","local_id":"186","fk_region":"6","fk_comuna":"78","fk_localidad":"1","local_nombre":"CRUZ VERDE","comuna_nombre":"VALPARAISO","localidad_nombre":"VALPARAISO URGENCIA","local_direccion":"AV. PEDRO MONTT 1902","funcionamiento_hora_apertura":"00:00:00","funcionamiento_hora_cierre":"23:59:00","local_telefono":"+56322745048","local_lat":"-33.0470628068749","local_lng":"-71.6169778733873","funcionamiento_dia":"miercoles"},{"fecha":"2026-01-15","local_id":"203","fk_region":"6","fk_comuna":"52","fk_localidad":"50","local_nombre":"SAN ENRIQUE","comuna_nombre":"EL TABO","localidad_nombre":"El TABO","local_direccion":"SAN MARCOS N\u00ba793 LOCAL 01","funcionamiento_hora_apertura":"09:00:00","funcionamiento_hora_cierre":"23:00:00","local_telefono":"+562469037","local_lat":"-33.4552541449701","local_lng":"-71.6673220648659","funcionamiento_dia":"jueves"},{"fecha":"2026-01-15","local_id":"207","fk_region":"6","fk_comuna":"48","fk_localidad":"5","local_nombre":"CRUZ VERDE","comuna_nombre":"CARTAGENA","localidad_nombre":"CARTAGENA","local_direccion":"AV. CARTAGENA N\u00b0313","funcionamiento_hora_apertura":"09:00:00","funcionamiento_hora_cierre":"23:00:00","local_telefono":"+562451143","local_lat":"-33.5465928963621","local_lng":"-71.6025624301641","funcionamiento_dia":"jueves"},{"fecha":"2026-01-15","local_id":"217","fk_region":"6","fk_comuna":"73","fk_localidad":"19","local_nombre":"MINELY","comuna_nombre":"SAN ANTONIO","localidad_nombre":"SAN ANTONIO","local_direccion":"AVENIDA PROVIDENCIA 121","funcionamiento_hora_apertura":"09:00:00","funcionamiento_hora_cierre":"08:59:00","local_telefono":"987565769","local_lat":"-33.6009251","local_lng":"-71.6134721","funcionamiento_dia":"jueves"},{"fecha":"2026-01-15","local_id":"228","fk_region":"6","fk_comuna":"54","fk_localidad":"11","local_nombre":"CRUZ VERDE","comuna_nombre":"ISLA DE PASCUA","localidad_nombre":"ISLA DE PASCUA","local_direccion":"ATAMU TEKENA S\/N","funcionamiento_hora_apertura":"09:00:00","funcionamiento_hora_cierre":"23:00:00","local_telefono":"+562551541","local_lat":"-27.149749480143992","local_lng":"-109.42890154536896","funcionamiento_dia":"jueves"},{"fecha":"2026-01-15","local_id":"243","fk_region":"6","fk_comuna":"67","fk_localidad":"30","local_nombre":"LAS REJAS","comuna_nombre":"PUCHUNCAVI","localidad_nombre":"PUCHUNCAVI","local_direccion":"CALLE PEDRO AGUIRRE CERDA 21 - VENTANAS 21","funcionamiento_hora_apertura":"09:00:00","funcionamiento_hora_cierre":"23:00:00","local_telefono":"2796910","local_lat":"-32.7417636016241","local_lng":"-71.4848105136989","funcionamiento_dia":"jueves"},{"fecha":"2026-01-15","local_id":"247","fk_region":"6","fk_comuna":"46","fk_localidad":"4","local_nombre":"NUEVA CABILDO","comuna_nombre":"CABILDO","localidad_nombre":"CABILDO","local_direccion":"AVENIDA HUMERES N\u00b0 571","funcionamiento_hora_apertura":"09:00:00","funcionamiento_hora_cierre":"23:00:00","local_telefono":"2762981","local_lat":"-32.4268688598886","local_lng":"-71.0676773886762","funcionamiento_dia":"jueves"},{"fecha":"2026-01-15","local_id":"259","fk_region":"6","fk_comuna":"61","fk_localidad":"20","local_nombre":"CRUZ VERDE","comuna_nombre":"LOS ANDES","localidad_nombre":"LOS ANDES","local_direccion":"CALLE MAIP\u00da N\u00b0 302","funcionamiento_hora_apertura":"09:00:00","funcionamiento_hora_cierre":"08:59:00","local_telefono":"2402955","local_lat":"-32.833526665096","local_lng":"-70.5973027730903","funcionamiento_dia":"jueves"},{"fecha":"2026-01-15","local_id":"272","fk_region":"6","fk_comuna":"65","fk_localidad":"25","local_nombre":"V&C MAR Y SALUD","comuna_nombre":"PAPUDO","localidad_nombre":"PAPUDO","local_direccion":"CALLE CHORRILLO 93","funcionamiento_hora_apertura":"09:00:00","funcionamiento_hora_cierre":"21:00:00","local_telefono":"992439061","local_lat":"-32.5072953","local_lng":"-71.4470545","funcionamiento_dia":"jueves"},{"fecha":"2026-01-15","local_id":"275","fk_region":"6","fk_comuna":"68","fk_localidad":"31","local_nombre":"FARMAVIDA","comuna_nombre":"PUTAENDO","localidad_nombre":"PUTAENDO","local_direccion":"CALLE COMERCIO N\u00b0 478","funcionamiento_hora_apertura":"09:00:00","funcionamiento_hora_cierre":"21:00:00","local_telefono":"996490798","local_lat":"-32.6268892307614","local_lng":"-70.7166072197359","funcionamiento_dia":"jueves"},{"fecha":"2026-01-15","local_id":"277","fk_region":"6","fk_comuna":"75","fk_localidad":"37","local_nombre":"CRUZ VERDE","comuna_nombre":"SAN FELIPE","localidad_nombre":"SAN FELIPE","local_direccion":"CALLE MERCED N\u00b0 176","funcionamiento_hora_apertura":"09:00:00","funcionamiento_hora_cierre":"08:59:00","local_telefono":"2514734","local_lat":"-32.7513976026944","local_lng":"-70.7251930500761","funcionamiento_dia":"jueves"},{"fecha":"2026-01-15","local_id":"287","fk_region":"6","fk_comuna":"76","fk_localidad":"38","local_nombre":"FARMAVIDA","comuna_nombre":"SANTA MARIA","localidad_nombre":"SANTA MARIA","local_direccion":"TRES CARRERA S\/N ESQUINA O'HIGGINS","funcionamiento_hora_apertura":"09:30:00","funcionamiento_hora_cierre":"20:00:00","local_telefono":"+56+56996490798","local_lat":"-32.7485710741327","local_lng":"-70.6566197761406","funcionamiento_dia":"jueves"},{"fecha":"2026-01-15","local_id":"289","fk_region":"6","fk_comuna":"81","fk_localidad":"42","local_nombre":"CRUZ VERDE","comuna_nombre":"ZAPALLAR","localidad_nombre":"ZAPALLAR","local_direccion":"MOISES CHACON N\u00b0 140","funcionamiento_hora_apertura":"09:00:00","funcionamiento_hora_cierre":"19:00:00","local_telefono":"+562741991","local_lat":"-32.5543541382821","local_lng":"-71.455588123027","funcionamiento_dia":"jueves"},{"fecha":"2026-01-15","local_id":"296","fk_region":"6","fk_comuna":"55","fk_localidad":"52","local_nombre":"SALCOBRAND","comuna_nombre":"JUAN FERNANDEZ","localidad_nombre":"JUAN FERNANDEZ","local_direccion":"MANZANA 16, SITIO 7","funcionamiento_hora_apertura":"09:00:00","funcionamiento_hora_cierre":"17:00:00","local_telefono":"+56224223300 anexo 5499","local_lat":"-33.635261","local_lng":"-78.831572","funcionamiento_dia":"jueves"},{"fecha":"2026-01-01","local_id":"335","fk_region":"2","fk_comuna":"9","fk_localidad":"65","local_nombre":"FARMACIA CRUZ VERDE ","comuna_nombre":"IQUIQUE","localidad_nombre":"IQUIQUE","local_direccion":"TARAPACA 496","funcionamiento_hora_apertura":"00:00:00","funcionamiento_hora_cierre":"23:59:00","local_telefono":"+562425641","local_lat":"-20.213904","local_lng":"-70.150348","funcionamiento_dia":"miercoles"},{"fecha":"2026-01-15","local_id":"508","fk_region":"6","fk_comuna":"78","fk_localidad":"29","local_nombre":"LA SALUD","comuna_nombre":"VALPARAISO","localidad_nombre":"PLAYA ANCHA","local_direccion":"AVENIDA LUIS GUEVARA ORTUZAR N\u00ba 2002 LOCAL N\u00ba 6","funcionamiento_hora_apertura":"10:00:00","funcionamiento_hora_cierre":"18:00:00","local_telefono":"+56323614582","local_lat":"-33.0439218191614","local_lng":"-71.6466034446998","funcionamiento_dia":"jueves"},{"fecha":"2026-01-15","local_id":"766","fk_region":"7","fk_comuna":"84","fk_localidad":"562","local_nombre":"CALERA DE TANGO","comuna_nombre":"CALERA DE TANGO","localidad_nombre":"TURNO DIURNO","local_direccion":"AVENIDA CALERA DE TANGO 593-B","funcionamiento_hora_apertura":"09:00:00","funcionamiento_hora_cierre":"21:00:00","local_telefono":"28551067","local_lat":"-33.6295697","local_lng":"-70.7643074","funcionamiento_dia":"jueves"},{"fecha":"2026-01-15","local_id":"788","fk_region":"7","fk_comuna":"86","fk_localidad":"548","local_nombre":"SILVA ","comuna_nombre":"CERRO NAVIA","localidad_nombre":"TURNOS","local_direccion":"AVENIDA HUELEN 1622","funcionamiento_hora_apertura":"08:00:00","funcionamiento_hora_cierre":"07:59:00","local_telefono":"26400664","local_lat":"-33.4192395","local_lng":"-70.7414268","funcionamiento_dia":"jueves"},{"fecha":"2026-01-15","local_id":"827","fk_region":"7","fk_comuna":"89","fk_localidad":"564","local_nombre":"CRUZ VERDE","comuna_nombre":"CURACAVI","localidad_nombre":"TURNO DIURNO","local_direccion":"CALLE PRESBITERO MORAGA SUR 1","funcionamiento_hora_apertura":"09:00:00","funcionamiento_hora_cierre":"21:00:00","local_telefono":"28352715","local_lat":"-33.402767","local_lng":"-71.129139","funcionamiento_dia":"jueves"},{"fecha":"2026-01-15","local_id":"836","fk_region":"7","fk_comuna":"90","fk_localidad":"550","local_nombre":"BELEN","comuna_nombre":"EL BOSQUE","localidad_nombre":"TURNOS","local_direccion":"AVENIDA PADRE HURTADO 12135","funcionamiento_hora_apertura":"08:00:00","funcionamiento_hora_cierre":"07:59:00","local_telefono":"25150897","local_lat":"-33.56952","local_lng":"-70.67334","funcionamiento_dia":"jueves"},{"fecha":"2026-01-15","local_id":"873","fk_region":"7","fk_comuna":"92","fk_localidad":"551","local_nombre":"ELENA","comuna_nombre":"ESTACION CENTRAL","localidad_nombre":"TURNOS","local_direccion":"AVENIDA 5 DE ABRIL 5940","funcionamiento_hora_apertura":"08:00:00","funcionamiento_hora_cierre":"07:59:00","local_telefono":"27640567","local_lat":"-33.4656584","local_lng":"-70.7085814","funcionamiento_dia":"jueves"},{"fecha":"2026-01-15","local_id":"922","fk_region":"7","fk_comuna":"95","fk_localidad":"566","local_nombre":"ECUANASER","comuna_nombre":"ISLA DE MAIPO","localidad_nombre":"TURNO DIURNO","local_direccion":"AVENIDA SANTELICES 555","funcionamiento_hora_apertura":"09:00:00","funcionamiento_hora_cierre":"21:00:00","local_telefono":"28199380","local_lat":"-33.754429","local_lng":"-70.900940","funcionamiento_dia":"jueves"},{"fecha":"2026-01-15","local_id":"1060","fk_region":"7","fk_comuna":"101","fk_localidad":"569","local_nombre":"BELEN","comuna_nombre":"LAMPA","localidad_nombre":"TURNO DIURNO","local_direccion":"CALLE FRANCIA 670","funcionamiento_hora_apertura":"09:00:00","funcionamiento_hora_cierre":"21:00:00","local_telefono":"28438414","local_lat":"-33.231773","local_lng":"-70.807404","funcionamiento_dia":"jueves"},{"fecha":"2026-01-15","local_id":"1526","fk_region":"7","fk_comuna":"118","fk_localidad":"555","local_nombre":"ESPOZ ","comuna_nombre":"PUDAHUEL","localidad_nombre":"TURNOS","local_direccion":"AVENIDA SAN PABLO 8735","funcionamiento_hora_apertura":"08:00:00","funcionamiento_hora_cierre":"07:59:00","local_telefono":"26434419","local_lat":"-33.444047","local_lng":"-70.753544","funcionamiento_dia":"jueves"},{"fecha":"2026-01-15","local_id":"1644","fk_region":"7","fk_comuna":"122","fk_localidad":"558","local_nombre":"BICENTENARIO","comuna_nombre":"RECOLETA","localidad_nombre":"TURNOS","local_direccion":"AVENIDA ZAPADORES 1062","funcionamiento_hora_apertura":"08:00:00","funcionamiento_hora_cierre":"07:59:00","local_telefono":"29986256","local_lat":"-33.387485","local_lng":"-70.649775","funcionamiento_dia":"jueves"},{"fecha":"2026-01-15","local_id":"1957","fk_region":"7","fk_comuna":"133","fk_localidad":"561","local_nombre":"DEL DR. SIMI ","comuna_nombre":"TALAGANTE","localidad_nombre":"TURNOS","local_direccion":"AVENIDA BERNARDO OHIGGINS 1085","funcionamiento_hora_apertura":"08:00:00","funcionamiento_hora_cierre":"07:59:00","local_telefono":"28380260","local_lat":"-33.663898","local_lng":"-70.928893","funcionamiento_dia":"jueves"},{"fecha":"2026-01-15","local_id":"2270","fk_region":"10","fk_comuna":"200","fk_localidad":"219","local_nombre":"LA ESTRELLA","comuna_nombre":"ARAUCO","localidad_nombre":"ARAUCO","local_direccion":"CONDELL 654","funcionamiento_hora_apertura":"09:00:00","funcionamiento_hora_cierre":"08:59:00","local_telefono":"+56412551009","local_lat":"-37.2464406086","local_lng":"-73.3204820046","funcionamiento_dia":"jueves"},{"fecha":"2026-01-15","local_id":"2276","fk_region":"16","fk_comuna":"201","fk_localidad":"220","local_nombre":"SANITEX","comuna_nombre":"BULNES","localidad_nombre":"BULNES","local_direccion":"CALLE CARLOS PALACIOS 339","funcionamiento_hora_apertura":"08:00:00","funcionamiento_hora_cierre":"22:00:00","local_telefono":"2631055","local_lat":"-36.7435817","local_lng":"-72.2972198","funcionamiento_dia":"jueves"},{"fecha":"2026-01-15","local_id":"2278","fk_region":"10","fk_comuna":"203","fk_localidad":"222","local_nombre":"CRUZ VERDE","comuna_nombre":"CA\u00d1ETE","localidad_nombre":"CA\u00d1ETE LOCALIDAD 1","local_direccion":"COVADONGA N\u00ba 267","funcionamiento_hora_apertura":"09:00:00","funcionamiento_hora_cierre":"08:59:00","local_telefono":"+56412853670","local_lat":"-37.8016826795","local_lng":"-73.3995544978","funcionamiento_dia":"jueves"},{"fecha":"2026-01-15","local_id":"2291","fk_region":"10","fk_comuna":"204","fk_localidad":"223","local_nombre":"SALCOBRAND","comuna_nombre":"CHIGUAYANTE","localidad_nombre":"CHIGUAYANTE LOCALIDAD 1","local_direccion":"AVENIDA MANUEL RODRIGUEZ 575","funcionamiento_hora_apertura":"09:00:00","funcionamiento_hora_cierre":"08:59:00","local_telefono":"","local_lat":"-36.9257035","local_lng":"-73.0247314","funcionamiento_dia":"jueves"},{"fecha":"2026-01-01","local_id":"2302","fk_region":"16","fk_comuna":"205","fk_localidad":"224","local_nombre":"CRUZ VERDE","comuna_nombre":"CHILLAN","localidad_nombre":"CHILLAN","local_direccion":"CALLE CINCO DE ABRIL 701","funcionamiento_hora_apertura":"00:00:00","funcionamiento_hora_cierre":"23:59:00","local_telefono":"2228423","local_lat":"-36.609273","local_lng":"-72.101566","funcionamiento_dia":"miercoles"},{"fecha":"2026-01-15","local_id":"2306","fk_region":"16","fk_comuna":"205","fk_localidad":"224","local_nombre":"EL LEON","comuna_nombre":"CHILLAN","localidad_nombre":"CHILLAN","local_direccion":"CALLE CINCO DE ABRIL 795","funcionamiento_hora_apertura":"09:00:00","funcionamiento_hora_cierre":"23:59:00","local_telefono":"2423544","local_lat":"-36.6102513","local_lng":"-72.102018","funcionamiento_dia":"jueves"},{"fecha":"2026-01-15","local_id":"2321","fk_region":"16","fk_comuna":"206","fk_localidad":"225","local_nombre":"REDFARMA","comuna_nombre":"CHILLAN VIEJO","localidad_nombre":"CHILLAN VIEJO","local_direccion":"AVENIDA OHIGGINS 2305","funcionamiento_hora_apertura":"08:00:00","funcionamiento_hora_cierre":"22:00:00","local_telefono":"2260758","local_lat":"-36.6231518","local_lng":"-72.1264569","funcionamiento_dia":"jueves"},{"fecha":"2026-01-15","local_id":"2324","fk_region":"16","fk_comuna":"208","fk_localidad":"227","local_nombre":"VIDASUR","comuna_nombre":"COELEMU","localidad_nombre":"COELEMU","local_direccion":"CALLE EXEQUIEL LARENAS 419","funcionamiento_hora_apertura":"08:00:00","funcionamiento_hora_cierre":"22:00:00","local_telefono":"2510167","local_lat":"-36.4905657","local_lng":"-72.7029149","funcionamiento_dia":"jueves"},{"fecha":"2026-01-01","local_id":"2332","fk_region":"10","fk_comuna":"210","fk_localidad":"229","local_nombre":"AHUMADA","comuna_nombre":"CONCEPCION","localidad_nombre":"COLLAO","local_direccion":"AVENIDA JUAN BOSCO 501","funcionamiento_hora_apertura":"00:00:00","funcionamiento_hora_cierre":"23:59:00","local_telefono":"","local_lat":"-36.8156098","local_lng":"-73.0311192","funcionamiento_dia":"miercoles"},{"fecha":"2026-01-15","local_id":"2354","fk_region":"10","fk_comuna":"210","fk_localidad":"375","local_nombre":"DR. SIMI","comuna_nombre":"CONCEPCION","localidad_nombre":"CONCEPCION CENTRO","local_direccion":"CALLE COLO COLO 378","funcionamiento_hora_apertura":"08:00:00","funcionamiento_hora_cierre":"22:00:00","local_telefono":"","local_lat":"-36.8269574","local_lng":"-73.0476798","funcionamiento_dia":"jueves"},{"fecha":"2026-01-15","local_id":"2388","fk_region":"10","fk_comuna":"212","fk_localidad":"231","local_nombre":"CRUZ VERDE","comuna_nombre":"CORONEL","localidad_nombre":"CORONEL CENTRO","local_direccion":"AVENIDA MANUEL MONTT 399","funcionamiento_hora_apertura":"09:00:00","funcionamiento_hora_cierre":"08:59:00","local_telefono":"","local_lat":"-37.0265174","local_lng":"-73.1474442","funcionamiento_dia":"jueves"},{"fecha":"2026-01-15","local_id":"2400","fk_region":"10","fk_comuna":"345","fk_localidad":"363","local_nombre":"FARMACIA EXTERNA CLINICA ANDES SALUD CONCEPCION","comuna_nombre":"HUALPEN","localidad_nombre":"HUALPEN LOCALIDAD 1","local_direccion":"AVENIDA JORGE ALESSANDRI 2047","funcionamiento_hora_apertura":"08:00:00","funcionamiento_hora_cierre":"22:00:00","local_telefono":"","local_lat":"-36.80036","local_lng":"-73.0710442","funcionamiento_dia":"jueves"},{"fecha":"2026-01-15","local_id":"2419","fk_region":"10","fk_comuna":"227","fk_localidad":"246","local_nombre":"CRUZ VERDE","comuna_nombre":"PENCO","localidad_nombre":"PENCO","local_direccion":"CALLE FREIRE 500","funcionamiento_hora_apertura":"09:00:00","funcionamiento_hora_cierre":"08:59:00","local_telefono":"","local_lat":"-36.7376312","local_lng":"-72.995393","funcionamiento_dia":"jueves"},{"fecha":"2026-01-15","local_id":"2425","fk_region":"16","fk_comuna":"228","fk_localidad":"247","local_nombre":"BECERRA","comuna_nombre":"PINTO","localidad_nombre":"PINTO","local_direccion":"CALLE ERNESTO RIQUELME 247","funcionamiento_hora_apertura":"09:00:00","funcionamiento_hora_cierre":"22:00:00","local_telefono":"2481012","local_lat":"-36.7057199","local_lng":"-71.8939558","funcionamiento_dia":"jueves"},{"fecha":"2026-01-15","local_id":"2428","fk_region":"16","fk_comuna":"232","fk_localidad":"251","local_nombre":"ITATA","comuna_nombre":"QUILLON","localidad_nombre":"QUILLON","local_direccion":"AVENIDA CAYUMANQUI 510","funcionamiento_hora_apertura":"08:00:00","funcionamiento_hora_cierre":"22:00:00","local_telefono":"2581979","local_lat":"-36.7431708","local_lng":"-72.4724595","funcionamiento_dia":"jueves"},{"fecha":"2026-01-01","local_id":"2438","fk_region":"10","fk_comuna":"240","fk_localidad":"259","local_nombre":"AHUMADA","comuna_nombre":"SAN PEDRO DE LA PAZ","localidad_nombre":"SAN PEDRO DE LA PAZ NORTE","local_direccion":"AVENIDA MICHIMALONCO 1120","funcionamiento_hora_apertura":"00:00:00","funcionamiento_hora_cierre":"23:59:00","local_telefono":"","local_lat":"-36.8429936","local_lng":"-73.0938803","funcionamiento_dia":"miercoles"},{"fecha":"2026-01-01","local_id":"2456","fk_region":"10","fk_comuna":"244","fk_localidad":"263","local_nombre":"CRUZ VERDE","comuna_nombre":"TALCAHUANO","localidad_nombre":"TALCAHUANO-HUALPEN CENTRO","local_direccion":"AVENIDA COL\u00d3N 300","funcionamiento_hora_apertura":"00:00:00","funcionamiento_hora_cierre":"23:59:00","local_telefono":"","local_lat":"-36.7131145","local_lng":"-73.1138018","funcionamiento_dia":"miercoles"},{"fecha":"2026-01-15","local_id":"2483","fk_region":"16","fk_comuna":"250","fk_localidad":"269","local_nombre":"FARMACIAS DEL DR. SIMI","comuna_nombre":"YUNGAY","localidad_nombre":"YUNGAY","local_direccion":"CALLE ESMERALDA 266","funcionamiento_hora_apertura":"08:00:00","funcionamiento_hora_cierre":"22:00:00","local_telefono":"2680705","local_lat":"-37.1201344","local_lng":"-72.0174392","funcionamiento_dia":"jueves"},{"fecha":"2026-01-01","local_id":"2484","fk_region":"10","fk_comuna":"220","fk_localidad":"239","local_nombre":"CRUZ VERDE","comuna_nombre":"LOS ANGELES","localidad_nombre":"LOS ANGELES - LOCALIDAD 1","local_direccion":"COL\u00d3N 411","funcionamiento_hora_apertura":"00:00:00","funcionamiento_hora_cierre":"23:59:00","local_telefono":"+56993796276","local_lat":"-37.469141","local_lng":"-72.350826","funcionamiento_dia":"miercoles"},{"fecha":"2026-01-15","local_id":"2510","fk_region":"10","fk_comuna":"223","fk_localidad":"242","local_nombre":"DR. SIMI","comuna_nombre":"NACIMIENTO","localidad_nombre":"NACIMIENTO","local_direccion":"SAN MARTIN 549-B","funcionamiento_hora_apertura":"08:00:00","funcionamiento_hora_cierre":"22:00:00","local_telefono":"+56432511498","local_lat":"-37.500921","local_lng":"-72.673111","funcionamiento_dia":"jueves"},{"fecha":"2026-01-15","local_id":"2543","fk_region":"10","fk_comuna":"249","fk_localidad":"268","local_nombre":"DR. SIMI","comuna_nombre":"YUMBEL","localidad_nombre":"YUMBEL - LOCALIDAD 1","local_direccion":"CALLE O'HIGGINS 751","funcionamiento_hora_apertura":"08:00:00","funcionamiento_hora_cierre":"22:00:00","local_telefono":"432439111","local_lat":"-37.099056","local_lng":"-72.561352","funcionamiento_dia":"jueves"},{"fecha":"2026-01-15","local_id":"2545","fk_region":"6","fk_comuna":"78","fk_localidad":"404","local_nombre":"CRUZ VERDE","comuna_nombre":"VALPARAISO","localidad_nombre":"PARQUE LOS INGLESES","local_direccion":"AV. JORGE KENRICK N\u00ba35 LOCAL 3 Y 4","funcionamiento_hora_apertura":"09:00:00","funcionamiento_hora_cierre":"21:00:00","local_telefono":"+563521337","local_lat":"-33.0589849642605","local_lng":"-71.5870608579352","funcionamiento_dia":"jueves"},{"fecha":"2026-01-15","local_id":"2586","fk_region":"6","fk_comuna":"63","fk_localidad":"24","local_nombre":"QFARMA","comuna_nombre":"OLMUE","localidad_nombre":"OLMUE","local_direccion":"CALLE PRAT N\u00ba 5122","funcionamiento_hora_apertura":"09:00:00","funcionamiento_hora_cierre":"21:00:00","local_telefono":"+56244 1226","local_lat":"-32.9954819780954","local_lng":"-71.182696127643","funcionamiento_dia":"jueves"},{"fecha":"2026-01-15","local_id":"3102","fk_region":"13","fk_comuna":"311","fk_localidad":"384","local_nombre":"FARMACIA SALCOBRAND","comuna_nombre":"PUERTO MONTT","localidad_nombre":"SECTOR CENTRO","local_direccion":"ANTONIO VARAS 599","funcionamiento_hora_apertura":"08:00:00","funcionamiento_hora_cierre":"23:59:00","local_telefono":"+562344089","local_lat":"-41.4727103","local_lng":"-72.94318909999998","funcionamiento_dia":"jueves"},{"fecha":"2026-01-01","local_id":"3114","fk_region":"13","fk_comuna":"311","fk_localidad":"382","local_nombre":"FARMACIAS CRUZ VERDE ","comuna_nombre":"PUERTO MONTT","localidad_nombre":"SECTOR CUARTA TERRAZA","local_direccion":"AVDA. PRESIDENTE IBA\u00d1EZ 173 LOCAL 1","funcionamiento_hora_apertura":"00:00:00","funcionamiento_hora_cierre":"23:59:00","local_telefono":"+56993796664","local_lat":"-41.4617201","local_lng":"-72.94411550000001","funcionamiento_dia":"miercoles"},{"fecha":"2026-01-15","local_id":"3122","fk_region":"4","fk_comuna":"27","fk_localidad":"83","local_nombre":"FARMACIA VIDA","comuna_nombre":"HUASCO","localidad_nombre":"HUASCO","local_direccion":"PASAJE RIQUELME 147","funcionamiento_hora_apertura":"09:00:00","funcionamiento_hora_cierre":"21:00:00","local_telefono":"512539390","local_lat":"-28.4634003","local_lng":"-71.2233201","funcionamiento_dia":"jueves"},{"fecha":"2026-01-01","local_id":"3126","fk_region":"4","fk_comuna":"24","fk_localidad":"80","local_nombre":"FARMACIA CRUZ VERDE","comuna_nombre":"COPIAPO","localidad_nombre":"COPIAPO","local_direccion":"CALLE BERNARDO O'HIGGINS 500","funcionamiento_hora_apertura":"00:00:00","funcionamiento_hora_cierre":"23:59:00","local_telefono":"522241213","local_lat":"-27.3659552768545","local_lng":"-70.33417253640327","funcionamiento_dia":"miercoles"},{"fecha":"2026-01-15","local_id":"3137","fk_region":"4","fk_comuna":"29","fk_localidad":"85","local_nombre":"FARMACIA SALCOBRAND","comuna_nombre":"VALLENAR","localidad_nombre":"VALLENAR","local_direccion":"AVENIDA ARTURO PRAT 1120","funcionamiento_hora_apertura":"09:00:00","funcionamiento_hora_cierre":"08:59:00","local_telefono":"512619226","local_lat":"-28.5770788","local_lng":"-70.7583141","funcionamiento_dia":"jueves"},{"fecha":"2026-01-15","local_id":"3149","fk_region":"4","fk_comuna":"28","fk_localidad":"84","local_nombre":"FARMACIA FARMATERRA","comuna_nombre":"TIERRA AMARILLA","localidad_nombre":"TIERRA AMARILLA","local_direccion":"AVENIDA MIGUEL LEMEUR 418","funcionamiento_hora_apertura":"09:00:00","funcionamiento_hora_cierre":"22:00:00","local_telefono":"522329554","local_lat":"-27.4783625","local_lng":"-70.2667241","funcionamiento_dia":"jueves"},{"fecha":"2026-01-15","local_id":"3155","fk_region":"4","fk_comuna":"25","fk_localidad":"81","local_nombre":"FARMACIA SAN MARTIN","comuna_nombre":"DIEGO DE ALMAGRO","localidad_nombre":"DIEGO DE ALMAGRO","local_direccion":"AVENIDA JUAN MART\u00cdNEZ 1107","funcionamiento_hora_apertura":"09:00:00","funcionamiento_hora_cierre":"21:00:00","local_telefono":"522449032","local_lat":"-26.3915827","local_lng":"-70.0458006","funcionamiento_dia":"jueves"},{"fecha":"2026-01-15","local_id":"3160","fk_region":"4","fk_comuna":"23","fk_localidad":"79","local_nombre":"FARMACIA VARAS","comuna_nombre":"CHA\u00d1ARAL","localidad_nombre":"CHA\u00d1ARAL","local_direccion":"CALLE ZULETA 150","funcionamiento_hora_apertura":"09:00:00","funcionamiento_hora_cierre":"08:59:00","local_telefono":"522481105","local_lat":"-26.3446101","local_lng":"-70.6175345","funcionamiento_dia":"jueves"},{"fecha":"2026-01-15","local_id":"3171","fk_region":"12","fk_comuna":"292","fk_localidad":"311","local_nombre":"CENTRO","comuna_nombre":"PAILLACO","localidad_nombre":"PAILLACO","local_direccion":"O\u00b4HIGGINS N\u00ba 36","funcionamiento_hora_apertura":"09:00:00","funcionamiento_hora_cierre":"08:59:00","local_telefono":"+562421339","local_lat":"-40.071527","local_lng":"-72.8764726","funcionamiento_dia":"jueves"},{"fecha":"2026-01-15","local_id":"3180","fk_region":"4","fk_comuna":"25","fk_localidad":"389","local_nombre":"FARMACIA SAN MIGUEL","comuna_nombre":"DIEGO DE ALMAGRO","localidad_nombre":"EL SALVADOR","local_direccion":"AVENIDA 4 DE JULIO 706","funcionamiento_hora_apertura":"09:30:00","funcionamiento_hora_cierre":"21:30:00","local_telefono":"522475425","local_lat":"-26.2450864","local_lng":"-69.625415","funcionamiento_dia":"jueves"},{"fecha":"2026-01-15","local_id":"3185","fk_region":"12","fk_comuna":"291","fk_localidad":"310","local_nombre":"PANGUIPULLI","comuna_nombre":"PANGUIPULLI","localidad_nombre":"PANGUIPULLI","local_direccion":"BERNARDO O\u00b4HIGGINS N\u00ba 491","funcionamiento_hora_apertura":"09:00:00","funcionamiento_hora_cierre":"08:59:00","local_telefono":"+5663311558","local_lat":"-39.6420833333333","local_lng":"-72.32877777778","funcionamiento_dia":"jueves"},{"fecha":"2026-01-01","local_id":"3191","fk_region":"11","fk_comuna":"275","fk_localidad":"294","local_nombre":"FARMACIA CRUZ VERDE L-367","comuna_nombre":"TEMUCO","localidad_nombre":"TEMUCO","local_direccion":"AVENIDA ALEMANIA 0780","funcionamiento_hora_apertura":"00:00:00","funcionamiento_hora_cierre":"23:59:00","local_telefono":"2244915","local_lat":"-38.736366215393986","local_lng":"-72.61581743068848","funcionamiento_dia":"miercoles"},{"fecha":"2026-01-15","local_id":"3192","fk_region":"12","fk_comuna":"284","fk_localidad":"303","local_nombre":"CRUZ VERDE","comuna_nombre":"LA UNION","localidad_nombre":"LA UNION","local_direccion":"ESMERALDA N\u00ba 700, LOCAL N\u00ba 5","funcionamiento_hora_apertura":"09:00:00","funcionamiento_hora_cierre":"08:59:00","local_telefono":"+56632323480","local_lat":"-40.29475","local_lng":"-73.08113888","funcionamiento_dia":"jueves"},{"fecha":"2026-01-15","local_id":"3211","fk_region":"12","fk_comuna":"290","fk_localidad":"309","local_nombre":"SALCOBRAND","comuna_nombre":"VALDIVIA","localidad_nombre":"VALDIVIA","local_direccion":"RAM\u00d3N PICARTE N\u00ba 301","funcionamiento_hora_apertura":"09:00:00","funcionamiento_hora_cierre":"00:00:00","local_telefono":"+56632255550","local_lat":"-39.8141905","local_lng":"-73.2455349","funcionamiento_dia":"jueves"},{"fecha":"2026-01-15","local_id":"3238","fk_region":"13","fk_comuna":"318","fk_localidad":"337","local_nombre":"FARMACIA QUELLON","comuna_nombre":"QUELLON","localidad_nombre":"QUELLON","local_direccion":"RAMON FREIRE 329","funcionamiento_hora_apertura":"09:00:00","funcionamiento_hora_cierre":"08:59:00","local_telefono":"+562680312","local_lat":"-43.1179237","local_lng":"-73.6167145","funcionamiento_dia":"jueves"},{"fecha":"2026-01-15","local_id":"3245","fk_region":"13","fk_comuna":"301","fk_localidad":"320","local_nombre":"FARMACIA AUSTRAL","comuna_nombre":"DALCAHUE","localidad_nombre":"DALCAHUE","local_direccion":"RAMON FREIRE 480","funcionamiento_hora_apertura":"08:00:00","funcionamiento_hora_cierre":"23:59:00","local_telefono":"+56652641225","local_lat":"-42.3793656","local_lng":"-73.64776660000001","funcionamiento_dia":"jueves"},{"fecha":"2026-01-15","local_id":"3246","fk_region":"13","fk_comuna":"298","fk_localidad":"317","local_nombre":"FARMACIA AUSTRAL","comuna_nombre":"CHONCHI","localidad_nombre":"CHONCHI","local_direccion":"SARGENTO CANDELARIA 286","funcionamiento_hora_apertura":"08:00:00","funcionamiento_hora_cierre":"23:59:00","local_telefono":"+56652671501","local_lat":"-42.6229172","local_lng":"-73.7785645","funcionamiento_dia":"jueves"},{"fecha":"2026-01-01","local_id":"3263","fk_region":"13","fk_comuna":"296","fk_localidad":"315","local_nombre":"FARMACIA CRUZ VERDE ","comuna_nombre":"CASTRO","localidad_nombre":"CASTRO","local_direccion":"CALLE SAN MARTIN 407","funcionamiento_hora_apertura":"00:00:00","funcionamiento_hora_cierre":"23:59:00","local_telefono":"2531618","local_lat":"-42.4816605","local_lng":"-73.7633728","funcionamiento_dia":"miercoles"},{"fecha":"2026-01-15","local_id":"3269","fk_region":"14","fk_comuna":"325","fk_localidad":"344","local_nombre":"FARMACIA CRUZ VERDE ","comuna_nombre":"CHILE CHICO","localidad_nombre":"CHILE CHICO","local_direccion":"CALLE AVENIDA BERNARDO O'HIGGINS 505","funcionamiento_hora_apertura":"09:00:00","funcionamiento_hora_cierre":"20:00:00","local_telefono":"976684836","local_lat":"-46.539853193165165","local_lng":"-71.72365395334437","funcionamiento_dia":"jueves"},{"fecha":"2026-01-15","local_id":"3311","fk_region":"5","fk_comuna":"44","fk_localidad":"100","local_nombre":"RIVERA 1","comuna_nombre":"VICU\u00d1A","localidad_nombre":"VICU\u00d1A","local_direccion":"CALLE SAN MARTIN 291","funcionamiento_hora_apertura":"09:00:00","funcionamiento_hora_cierre":"08:59:00","local_telefono":"2411286","local_lat":"-30.0334844","local_lng":"-70.7134099","funcionamiento_dia":"jueves"},{"fecha":"2026-01-15","local_id":"3317","fk_region":"13","fk_comuna":"313","fk_localidad":"332","local_nombre":"FARMACIA TANG ","comuna_nombre":"PUERTO VARAS","localidad_nombre":"SECTOR CENTRO","local_direccion":"SAN JOSE N\u00ba 317 PUERTO VARAS","funcionamiento_hora_apertura":"09:00:00","funcionamiento_hora_cierre":"08:59:00","local_telefono":"+56652234577","local_lat":"-41.3173415","local_lng":"-72.984554","funcionamiento_dia":"jueves"},{"fecha":"2026-01-15","local_id":"3319","fk_region":"13","fk_comuna":"295","fk_localidad":"314","local_nombre":"FARMACIAS CRUZ VERDE ","comuna_nombre":"CALBUCO","localidad_nombre":"CALBUCO","local_direccion":"FEDERICO ERRAZURIZ 370, CALBUCO","funcionamiento_hora_apertura":"09:00:00","funcionamiento_hora_cierre":"08:59:00","local_telefono":"+5665652462250","local_lat":"-41.770456","local_lng":"-73.12731229999997","funcionamiento_dia":"jueves"},{"fecha":"2026-01-15","local_id":"3351","fk_region":"13","fk_comuna":"306","fk_localidad":"325","local_nombre":"FARMACIA CRUZ VERDE ","comuna_nombre":"LLANQUIHUE","localidad_nombre":"LLANQUIHUE","local_direccion":"BAQUEDANO N\u00ba 506 LLANQUIHUE","funcionamiento_hora_apertura":"08:00:00","funcionamiento_hora_cierre":"23:59:00","local_telefono":"+56652242666","local_lat":"-41.2546828","local_lng":"-73.0061713","funcionamiento_dia":"jueves"},{"fecha":"2026-01-15","local_id":"3356","fk_region":"2","fk_comuna":"11","fk_localidad":"67","local_nombre":"FARMACIA JERUSALEN","comuna_nombre":"POZO ALMONTE","localidad_nombre":"POZO ALMONTE","local_direccion":"COMERCIO 307, POZO ALMONTE, TARAPACA, CHILE","funcionamiento_hora_apertura":"09:00:00","funcionamiento_hora_cierre":"22:00:00","local_telefono":"+562751030","local_lat":"-20.259118909311535","local_lng":"-69.78562562698357","funcionamiento_dia":"jueves"},{"fecha":"2026-01-15","local_id":"3358","fk_region":"13","fk_comuna":"305","fk_localidad":"324","local_nombre":"FARMACIA AUSTRAL","comuna_nombre":"HUALAIHUE","localidad_nombre":"HUALAIHUE","local_direccion":"O'HIGGINS ESQ. PEDRO MALDONADO S\/N\u00ba HORNOPIREN COMUNA DE HUALAIHUE","funcionamiento_hora_apertura":"09:00:00","funcionamiento_hora_cierre":"20:00:00","local_telefono":"+562217411","local_lat":"-41.965623","local_lng":"-72.47050000000002","funcionamiento_dia":"jueves"},{"fecha":"2026-01-01","local_id":"3364","fk_region":"13","fk_comuna":"309","fk_localidad":"328","local_nombre":"FARMACIA CRUZ VERDE","comuna_nombre":"OSORNO","localidad_nombre":"SECTOR CENTRO","local_direccion":"CALLE ELEUTERIO RAMIREZ 1000","funcionamiento_hora_apertura":"00:00:00","funcionamiento_hora_cierre":"23:59:00","local_telefono":"2311618","local_lat":"-40.5731785","local_lng":"-73.1334623","funcionamiento_dia":"miercoles"},{"fecha":"2026-01-01","local_id":"3371","fk_region":"14","fk_comuna":"328","fk_localidad":"347","local_nombre":"FARMACIAS CRUZ VERDE","comuna_nombre":"COYHAIQUE","localidad_nombre":"COYHAIQUE","local_direccion":"CALLE ARTURO PRAT 378","funcionamiento_hora_apertura":"00:00:00","funcionamiento_hora_cierre":"23:59:00","local_telefono":"2258386","local_lat":"-45.5729119","local_lng":"-72.0709977","funcionamiento_dia":"miercoles"},{"fecha":"2026-01-15","local_id":"3379","fk_region":"2","fk_comuna":"10","fk_localidad":"66","local_nombre":"JERUSALEM","comuna_nombre":"PICA","localidad_nombre":"PICA","local_direccion":"CALLE BALMACEDA 272","funcionamiento_hora_apertura":"09:00:00","funcionamiento_hora_cierre":"21:00:00","local_telefono":"973736079","local_lat":"-20.4905827","local_lng":"-69.3276579","funcionamiento_dia":"jueves"},{"fecha":"2026-01-15","local_id":"3429","fk_region":"13","fk_comuna":"309","fk_localidad":"387","local_nombre":"FARMACIAS OSORNO","comuna_nombre":"OSORNO","localidad_nombre":"SECTOR LYNCH","local_direccion":"PATRICIO LYNCH 1598","funcionamiento_hora_apertura":"09:00:00","funcionamiento_hora_cierre":"21:00:00","local_telefono":"+5656642270042","local_lat":"-40.574318","local_lng":"-73.122865","funcionamiento_dia":"jueves"},{"fecha":"2026-01-15","local_id":"3436","fk_region":"13","fk_comuna":"315","fk_localidad":"334","local_nombre":"FARMACIA SUR","comuna_nombre":"PURRANQUE","localidad_nombre":"PURRANQUE","local_direccion":"PEDRO MONTT 126","funcionamiento_hora_apertura":"08:00:00","funcionamiento_hora_cierre":"22:00:00","local_telefono":"+562351320","local_lat":"-40.91432334826148","local_lng":"-73.1590747833252","funcionamiento_dia":"jueves"},{"fecha":"2026-01-15","local_id":"3456","fk_region":"13","fk_comuna":"320","fk_localidad":"339","local_nombre":"FARMACIA QUINCHAO","comuna_nombre":"QUINCHAO","localidad_nombre":"QUINCHAO","local_direccion":"SERRANO N\u00ba 019, ACHAO","funcionamiento_hora_apertura":"08:00:00","funcionamiento_hora_cierre":"23:59:00","local_telefono":"+562661466","local_lat":"-42.471176","local_lng":"-73.491798","funcionamiento_dia":"jueves"},{"fecha":"2026-01-15","local_id":"3460","fk_region":"14","fk_comuna":"328","fk_localidad":"347","local_nombre":"FARMACIAS SALCOBRAND","comuna_nombre":"COYHAIQUE","localidad_nombre":"COYHAIQUE","local_direccion":"CALLE FRANCISCO BILBAO 326","funcionamiento_hora_apertura":"09:00:00","funcionamiento_hora_cierre":"22:30:00","local_telefono":"2210460","local_lat":"-45.57216435395428","local_lng":"-72.07048974119228","funcionamiento_dia":"jueves"},{"fecha":"2026-01-01","local_id":"3487","fk_region":"3","fk_comuna":"12","fk_localidad":"391","local_nombre":"FARMACIA CRUZ VERDE","comuna_nombre":"ANTOFAGASTA","localidad_nombre":"ANTOFAGASTA SUR","local_direccion":"AVENIDA ANGAMOS 785","funcionamiento_hora_apertura":"00:00:00","funcionamiento_hora_cierre":"23:59:00","local_telefono":"2258219","local_lat":"-23.6667333","local_lng":"-70.4042781","funcionamiento_dia":"miercoles"},{"fecha":"2026-01-15","local_id":"3535","fk_region":"11","fk_comuna":"279","fk_localidad":"298","local_nombre":"FARMACIA CRUZ VERDE 774","comuna_nombre":"VICTORIA","localidad_nombre":"VICTORIA","local_direccion":"GRAL. LAGOS N\u00ba 522","funcionamiento_hora_apertura":"09:00:00","funcionamiento_hora_cierre":"08:59:00","local_telefono":"+562844046","local_lat":"-38.23462051780492","local_lng":"-72.33316346788939","funcionamiento_dia":"jueves"},{"fecha":"2026-01-15","local_id":"3539","fk_region":"11","fk_comuna":"278","fk_localidad":"297","local_nombre":"FARMACIA CRUZ VERDE","comuna_nombre":"TRAIGUEN","localidad_nombre":"TRAIGUEN","local_direccion":"CALLE SANTA CRUZ 795","funcionamiento_hora_apertura":"09:00:00","funcionamiento_hora_cierre":"08:59:00","local_telefono":"2467616","local_lat":"-38.24913427095767","local_lng":"-72.66859613018039","funcionamiento_dia":"jueves"},{"fecha":"2026-01-15","local_id":"3544","fk_region":"11","fk_comuna":"255","fk_localidad":"274","local_nombre":"FARMACIA CRISTAL","comuna_nombre":"CURACAUTIN","localidad_nombre":"CURACAUTIN","local_direccion":"OHIGGINS N\u00ba 405","funcionamiento_hora_apertura":"09:00:00","funcionamiento_hora_cierre":"08:59:00","local_telefono":"+56452881279","local_lat":"-38.437386599388965","local_lng":"-71.89296468059547","funcionamiento_dia":"jueves"},{"fecha":"2026-01-15","local_id":"3550","fk_region":"11","fk_comuna":"277","fk_localidad":"296","local_nombre":"FARMACIA TOLT\u00c9N","comuna_nombre":"TOLTEN","localidad_nombre":"TOLTEN","local_direccion":"SAN MART\u00cdN N\u00ba 548","funcionamiento_hora_apertura":"09:00:00","funcionamiento_hora_cierre":"08:59:00","local_telefono":"+56452671790","local_lat":"-39.17795818231996","local_lng":"-73.16193455223464","funcionamiento_dia":"jueves"},{"fecha":"2026-01-15","local_id":"3568","fk_region":"11","fk_comuna":"261","fk_localidad":"280","local_nombre":"F. SALCOBRAND","comuna_nombre":"LAUTARO","localidad_nombre":"LAUTARO","local_direccion":"CALLE BERNARDO O'HIGGINS 812","funcionamiento_hora_apertura":"09:00:00","funcionamiento_hora_cierre":"08:59:00","local_telefono":"","local_lat":"-38.53154940799138","local_lng":"-72.4346465594162","funcionamiento_dia":"jueves"},{"fecha":"2026-01-15","local_id":"3571","fk_region":"11","fk_comuna":"253","fk_localidad":"272","local_nombre":"DR. SIMI","comuna_nombre":"COLLIPULLI","localidad_nombre":"COLLIPULLI","local_direccion":"OCARROL N\u00ba 964","funcionamiento_hora_apertura":"09:00:00","funcionamiento_hora_cierre":"08:59:00","local_telefono":"+56452519138","local_lat":"-37.95695865633374","local_lng":"-72.43627246664641","funcionamiento_dia":"jueves"},{"fecha":"2026-01-15","local_id":"3574","fk_region":"11","fk_comuna":"262","fk_localidad":"281","local_nombre":"F. FRANCIA","comuna_nombre":"LONCOCHE","localidad_nombre":"LONCOCHE","local_direccion":"P. MONTT N\u00ba 648","funcionamiento_hora_apertura":"09:00:00","funcionamiento_hora_cierre":"08:59:00","local_telefono":"+56452471095","local_lat":"-39.37087365983213","local_lng":"-72.63148349570082","funcionamiento_dia":"jueves"},{"fecha":"2026-01-01","local_id":"3580","fk_region":"5","fk_comuna":"36","fk_localidad":"402","local_nombre":"CRUZ VERDE","comuna_nombre":"LA SERENA","localidad_nombre":"LA SERENA","local_direccion":"CORDOVEZ 510","funcionamiento_hora_apertura":"00:00:00","funcionamiento_hora_cierre":"23:59:00","local_telefono":"","local_lat":"-29.903136264072085","local_lng":"-71.24983934365603","funcionamiento_dia":"miercoles"},{"fecha":"2026-01-15","local_id":"3615","fk_region":"5","fk_comuna":"34","fk_localidad":"90","local_nombre":"ECONAT","comuna_nombre":"ILLAPEL","localidad_nombre":"ILLAPEL","local_direccion":"CONSTITUCI\u00d3N N\u00b0490","funcionamiento_hora_apertura":"09:00:00","funcionamiento_hora_cierre":"23:00:00","local_telefono":"+56532525176","local_lat":"-31.6307543","local_lng":"-71.16428239999999","funcionamiento_dia":"jueves"},{"fecha":"2026-01-15","local_id":"3652","fk_region":"5","fk_comuna":"43","fk_localidad":"99","local_nombre":"CRUZ VERDE","comuna_nombre":"SALAMANCA","localidad_nombre":"SALAMANCA","local_direccion":"MATILDE SALAMANCA 221","funcionamiento_hora_apertura":"09:00:00","funcionamiento_hora_cierre":"23:00:00","local_telefono":"+562553740","local_lat":"-31.778974300000012","local_lng":"-70.96462417301636","funcionamiento_dia":"jueves"},{"fecha":"2026-01-01","local_id":"3662","fk_region":"8","fk_comuna":"162","fk_localidad":"430","local_nombre":"FARMACIA CRUZ VERDE","comuna_nombre":"RANCAGUA","localidad_nombre":"RANCAGUA URGENCIA","local_direccion":"CALLE BRASIL 801","funcionamiento_hora_apertura":"00:00:00","funcionamiento_hora_cierre":"23:59:00","local_telefono":"2222180","local_lat":"-34.1693171131014","local_lng":"-70.74636613754274","funcionamiento_dia":"miercoles"},{"fecha":"2026-01-01","local_id":"3676","fk_region":"8","fk_comuna":"162","fk_localidad":"430","local_nombre":"FARMACIA SALCOBRAND","comuna_nombre":"RANCAGUA","localidad_nombre":"RANCAGUA URGENCIA","local_direccion":"INDEPENDENCIA N\u00b0 798","funcionamiento_hora_apertura":"00:00:00","funcionamiento_hora_cierre":"23:59:00","local_telefono":"+56722227528","local_lat":"-34.1694815","local_lng":"-70.74616500000002","funcionamiento_dia":"miercoles"},{"fecha":"2026-01-15","local_id":"3683","fk_region":"3","fk_comuna":"12","fk_localidad":"68","local_nombre":"FARMACIA CRUZ VERDE","comuna_nombre":"ANTOFAGASTA","localidad_nombre":"ANTOFAGASTA CENTRO","local_direccion":"CALLE MANUEL ANTONIO MATTA 1919","funcionamiento_hora_apertura":"09:00:00","funcionamiento_hora_cierre":"21:00:00","local_telefono":"2551580","local_lat":"-23.6543023","local_lng":"-70.4018182","funcionamiento_dia":"jueves"},{"fecha":"2026-01-01","local_id":"3690","fk_region":"8","fk_comuna":"165","fk_localidad":"184","local_nombre":"FARMACIA CRUZ VERDE","comuna_nombre":"SAN FERNANDO","localidad_nombre":"SAN FERNANDO","local_direccion":"AVENIDA MANUEL RODRIGUEZ 787","funcionamiento_hora_apertura":"00:00:00","funcionamiento_hora_cierre":"23:59:00","local_telefono":"2712927","local_lat":"-34.58757171966949","local_lng":"-70.98674275517862","funcionamiento_dia":"miercoles"},{"fecha":"2026-01-15","local_id":"3694","fk_region":"8","fk_comuna":"142","fk_localidad":"161","local_nombre":"LA COMPA\u00d1\u00cdA","comuna_nombre":"GRANEROS","localidad_nombre":"GRANEROS","local_direccion":"AVENIDA LA COMPA\u00d1\u00cdA N\u00b0 028","funcionamiento_hora_apertura":"08:00:00","funcionamiento_hora_cierre":"23:59:00","local_telefono":"+56722471434","local_lat":"-34.068042","local_lng":"-70.725371","funcionamiento_dia":"jueves"},{"fecha":"2026-01-15","local_id":"3699","fk_region":"8","fk_comuna":"155","fk_localidad":"174","local_nombre":"FARCO","comuna_nombre":"PERALILLO","localidad_nombre":"PERALILLO","local_direccion":"MANUEL RODRIGUEZ 538, PERALILLO","funcionamiento_hora_apertura":"08:00:00","funcionamiento_hora_cierre":"23:59:00","local_telefono":"+567295304625","local_lat":"-34.478990414527445","local_lng":"-71.48123475855249","funcionamiento_dia":"jueves"},{"fecha":"2026-01-15","local_id":"3701","fk_region":"8","fk_comuna":"157","fk_localidad":"176","local_nombre":"CUARTOCENTENARIO","comuna_nombre":"PICHIDEGUA","localidad_nombre":"PICHIDEGUA","local_direccion":"INDEPENDENCIA N\u00b0 562","funcionamiento_hora_apertura":"08:00:00","funcionamiento_hora_cierre":"23:59:00","local_telefono":"+56722591329","local_lat":"-34.35903622934217","local_lng":"-71.28249770052491","funcionamiento_dia":"jueves"},{"fecha":"2026-01-15","local_id":"3702","fk_region":"8","fk_comuna":"141","fk_localidad":"421","local_nombre":"LO MIRANDA","comuna_nombre":"DO\u00d1IHUE","localidad_nombre":"LO MIRANDA","local_direccion":"CALLE LAS CARMELITAS 44","funcionamiento_hora_apertura":"09:00:00","funcionamiento_hora_cierre":"20:00:00","local_telefono":"2678141","local_lat":"-34.19839986541759","local_lng":"-70.88969001468047","funcionamiento_dia":"jueves"},{"fecha":"2026-01-15","local_id":"3706","fk_region":"8","fk_comuna":"141","fk_localidad":"160","local_nombre":"LOURDES","comuna_nombre":"DO\u00d1IHUE","localidad_nombre":"DO\u00d1IHUE","local_direccion":"DELF\u00cdN CARVALLO N\u00b0 440-A","funcionamiento_hora_apertura":"09:00:00","funcionamiento_hora_cierre":"21:00:00","local_telefono":"+56722462617","local_lat":"-34.226307107776115","local_lng":"-70.96454438465577","funcionamiento_dia":"jueves"},{"fecha":"2026-01-15","local_id":"3708","fk_region":"8","fk_comuna":"149","fk_localidad":"168","local_nombre":"FLORES","comuna_nombre":"MARCHIGUE","localidad_nombre":"MARCHIGUE","local_direccion":"ARTURO PRAT N\u00b0 487","funcionamiento_hora_apertura":"09:00:00","funcionamiento_hora_cierre":"21:00:00","local_telefono":"+56722831234","local_lat":"-34.39533080152805","local_lng":"-71.62157200000001","funcionamiento_dia":"jueves"},{"fecha":"2026-01-15","local_id":"3718","fk_region":"8","fk_comuna":"164","fk_localidad":"183","local_nombre":"MAGISTRAL","comuna_nombre":"REQUINOA","localidad_nombre":"REQUINOA","local_direccion":"MURIALDO N\u00b0 46-A","funcionamiento_hora_apertura":"08:00:00","funcionamiento_hora_cierre":"23:59:00","local_telefono":"+56722263645","local_lat":"-34.298391712005724","local_lng":"-70.82114815041507","funcionamiento_dia":"jueves"},{"fecha":"2026-01-15","local_id":"3761","fk_region":"8","fk_comuna":"144","fk_localidad":"163","local_nombre":"POSTO VERDE","comuna_nombre":"LAS CABRAS","localidad_nombre":"LAS CABRAS","local_direccion":"CARLOS FRESNO N\u00b0 300, LOCAL 1","funcionamiento_hora_apertura":"09:00:00","funcionamiento_hora_cierre":"08:59:00","local_telefono":"+562501540","local_lat":"-34.29183387545094","local_lng":"-71.31064664299163","funcionamiento_dia":"jueves"},{"fecha":"2026-01-15","local_id":"3764","fk_region":"8","fk_comuna":"163","fk_localidad":"182","local_nombre":"DR. SIMI","comuna_nombre":"RENGO","localidad_nombre":"RENGO","local_direccion":"ARTURO PRAT N\u00b0 206-B","funcionamiento_hora_apertura":"09:00:00","funcionamiento_hora_cierre":"08:59:00","local_telefono":"+562585739","local_lat":"-34.407041051957094","local_lng":"-70.8599258542074","funcionamiento_dia":"jueves"},{"fecha":"2026-01-01","local_id":"3777","fk_region":"8","fk_comuna":"168","fk_localidad":"187","local_nombre":"FARMACIA CRUZ VERDE","comuna_nombre":"SANTA CRUZ","localidad_nombre":"SANTA CRUZ","local_direccion":"CALLE PLAZA DE ARMAS 98","funcionamiento_hora_apertura":"00:00:00","funcionamiento_hora_cierre":"23:59:00","local_telefono":"2824420","local_lat":"-34.64054635232659","local_lng":"-71.36640495172588","funcionamiento_dia":"miercoles"},{"fecha":"2026-01-15","local_id":"3794","fk_region":"3","fk_comuna":"12","fk_localidad":"391","local_nombre":"FARMACIA AHUMADA","comuna_nombre":"ANTOFAGASTA","localidad_nombre":"ANTOFAGASTA SUR","local_direccion":"AVENIDA ARGENTINA 1105","funcionamiento_hora_apertura":"09:00:00","funcionamiento_hora_cierre":"21:00:00","local_telefono":"26313123","local_lat":"-23.665101487965135","local_lng":"-70.3987637730163","funcionamiento_dia":"jueves"},{"fecha":"2026-01-15","local_id":"3818","fk_region":"9","fk_comuna":"176","fk_localidad":"195","local_nombre":"FARMACIA HUALA\u00d1\u00c9","comuna_nombre":"HUALA\u00d1E","localidad_nombre":"HUALA\u00d1E","local_direccion":"ARTURO PRAT N\u00b0 286","funcionamiento_hora_apertura":"09:00:00","funcionamiento_hora_cierre":"23:59:00","local_telefono":"+560","local_lat":"-34.976145","local_lng":"-71.803193","funcionamiento_dia":"jueves"},{"fecha":"2026-01-15","local_id":"3819","fk_region":"9","fk_comuna":"195","fk_localidad":"214","local_nombre":"FARMACIA SAN FRANCISCO","comuna_nombre":"TENO","localidad_nombre":"TENO","local_direccion":"COMALLE N\u00b0147-B","funcionamiento_hora_apertura":"09:00:00","funcionamiento_hora_cierre":"23:59:00","local_telefono":"+560","local_lat":"-34.8699799","local_lng":"-71.1616898","funcionamiento_dia":"jueves"},{"fecha":"2026-01-15","local_id":"3837","fk_region":"9","fk_comuna":"181","fk_localidad":"200","local_nombre":"FARMACIA MOLINA","comuna_nombre":"MOLINA","localidad_nombre":"MOLINA","local_direccion":"QUECHEREGUAS N\u00b01972","funcionamiento_hora_apertura":"09:00:00","funcionamiento_hora_cierre":"01:00:00","local_telefono":"+560","local_lat":"-35.115025","local_lng":"-71.281174","funcionamiento_dia":"jueves"},{"fecha":"2026-01-15","local_id":"3851","fk_region":"9","fk_comuna":"169","fk_localidad":"188","local_nombre":"FARMACIA HOSPITAL","comuna_nombre":"CAUQUENES","localidad_nombre":"CAUQUENES","local_direccion":"VICTORIA N\u00b0653","funcionamiento_hora_apertura":"09:00:00","funcionamiento_hora_cierre":"01:00:00","local_telefono":"+560","local_lat":"-35.967596","local_lng":"-72.318652","funcionamiento_dia":"jueves"},{"fecha":"2026-01-01","local_id":"3864","fk_region":"9","fk_comuna":"178","fk_localidad":"197","local_nombre":"FARMACIA CRUZ VERDE","comuna_nombre":"LINARES","localidad_nombre":"LINARES","local_direccion":"CALLE INDEPENDENCIA 543","funcionamiento_hora_apertura":"00:00:00","funcionamiento_hora_cierre":"23:59:00","local_telefono":"","local_lat":"-35.8465812","local_lng":"-71.5953351","funcionamiento_dia":"miercoles"},{"fecha":"2026-01-15","local_id":"3871","fk_region":"8","fk_comuna":"137","fk_localidad":"156","local_nombre":"FARMACIA PRINCIPAL","comuna_nombre":"CHIMBARONGO","localidad_nombre":"CHIMBARONGO","local_direccion":"MIRAFLORES N\u00b0 497","funcionamiento_hora_apertura":"09:00:00","funcionamiento_hora_cierre":"08:59:00","local_telefono":"+56722782311","local_lat":"-34.70638262037225","local_lng":"-71.0423617323242","funcionamiento_dia":"jueves"},{"fecha":"2026-01-15","local_id":"3872","fk_region":"8","fk_comuna":"168","fk_localidad":"187","local_nombre":"FARMACIA SANTA CRUZ","comuna_nombre":"SANTA CRUZ","localidad_nombre":"SANTA CRUZ","local_direccion":"RAFAEL CASANOVA N\u00b0 454-C","funcionamiento_hora_apertura":"08:00:00","funcionamiento_hora_cierre":"23:59:00","local_telefono":"+56722824448","local_lat":"-34.64160749603523","local_lng":"-71.37106810281239","funcionamiento_dia":"jueves"},{"fecha":"2026-01-15","local_id":"3874","fk_region":"8","fk_comuna":"166","fk_localidad":"185","local_nombre":"FARMACIA NUEVA PROGRESO","comuna_nombre":"SAN FRANCISCO DE MOSTAZAL","localidad_nombre":"SAN FRANCISCO DE MOSTAZAL","local_direccion":"INDEPENDENCIA N\u00b0 481","funcionamiento_hora_apertura":"09:00:00","funcionamiento_hora_cierre":"08:59:00","local_telefono":"+5672722491117","local_lat":"-33.98085148679584","local_lng":"-70.71256891726279","funcionamiento_dia":"jueves"},{"fecha":"2026-01-01","local_id":"3909","fk_region":"9","fk_comuna":"174","fk_localidad":"193","local_nombre":"FARMACIA CRUZ VERDE","comuna_nombre":"CURICO","localidad_nombre":"CURICO CENTRO","local_direccion":"PRAT N\u00b0 499","funcionamiento_hora_apertura":"00:00:00","funcionamiento_hora_cierre":"23:59:00","local_telefono":"","local_lat":"-34.98386251","local_lng":"-71.24167307","funcionamiento_dia":"miercoles"},{"fecha":"2026-01-15","local_id":"3913","fk_region":"5","fk_comuna":"37","fk_localidad":"93","local_nombre":"CRUZ VERDE","comuna_nombre":"LOS VILOS","localidad_nombre":"LOS VILOS","local_direccion":"CALLE CAUPOLICAN 600","funcionamiento_hora_apertura":"09:00:00","funcionamiento_hora_cierre":"23:00:00","local_telefono":"","local_lat":"-31.9107697","local_lng":"-71.5085743","funcionamiento_dia":"jueves"},{"fecha":"2026-01-01","local_id":"3931","fk_region":"9","fk_comuna":"194","fk_localidad":"213","local_nombre":"FARMACIA CRUZ VERDE","comuna_nombre":"TALCA","localidad_nombre":"TALCA CENTRO","local_direccion":"1 SUR N\u00ba 1501","funcionamiento_hora_apertura":"00:00:00","funcionamiento_hora_cierre":"23:59:00","local_telefono":"","local_lat":"-35.4278902328126","local_lng":"-71.6555097197239","funcionamiento_dia":"miercoles"},{"fecha":"2026-01-15","local_id":"3975","fk_region":"14","fk_comuna":"327","fk_localidad":"346","local_nombre":"FARMACIA CRUZ VERDE","comuna_nombre":"COCHRANE","localidad_nombre":"COCHRANE","local_direccion":"AVENIDA TENIENTE MERINO N\u00ba 464","funcionamiento_hora_apertura":"09:00:00","funcionamiento_hora_cierre":"21:00:00","local_telefono":"+560228700747","local_lat":"-47.253679","local_lng":"-72.574097","funcionamiento_dia":"jueves"},{"fecha":"2026-01-15","local_id":"4015","fk_region":"2","fk_comuna":"5","fk_localidad":"61","local_nombre":"DR. SIMI","comuna_nombre":"ALTO HOSPICIO","localidad_nombre":"ALTO HOSPICIO","local_direccion":"AVDA. LAS AMERICAS N\u00ba 4225","funcionamiento_hora_apertura":"08:00:00","funcionamiento_hora_cierre":"23:59:00","local_telefono":"+560224590090","local_lat":"-20.288634764769263","local_lng":"-70.10377076403199","funcionamiento_dia":"jueves"},{"fecha":"2026-01-15","local_id":"4049","fk_region":"10","fk_comuna":"246","fk_localidad":"265","local_nombre":"VIDASUR","comuna_nombre":"TOME","localidad_nombre":"TOME","local_direccion":"AVENIDA MANUEL MONTT 1216","funcionamiento_hora_apertura":"09:00:00","funcionamiento_hora_cierre":"08:59:00","local_telefono":"","local_lat":"-36.6182244","local_lng":"-72.9547078","funcionamiento_dia":"jueves"},{"fecha":"2026-01-15","local_id":"4070","fk_region":"14","fk_comuna":"324","fk_localidad":"343","local_nombre":"FARMACIA CRUZ VERDE","comuna_nombre":"AYSEN","localidad_nombre":"AYSEN","local_direccion":"CALLE SARGENTO ALDEA 1070","funcionamiento_hora_apertura":"00:00:00","funcionamiento_hora_cierre":"23:59:00","local_telefono":"2330289","local_lat":"-45.40438450000001","local_lng":"-72.6946926","funcionamiento_dia":"jueves"},{"fecha":"2026-01-15","local_id":"4078","fk_region":"6","fk_comuna":"58","fk_localidad":"14","local_nombre":"FARMAEXPRESS","comuna_nombre":"LA LIGUA","localidad_nombre":"LA LIGUA","local_direccion":"CALLE PEDRO POLANCO 214","funcionamiento_hora_apertura":"09:00:00","funcionamiento_hora_cierre":"08:59:00","local_telefono":"2711389","local_lat":"-32.4487691","local_lng":"-71.231176","funcionamiento_dia":"jueves"},{"fecha":"2026-01-15","local_id":"4125","fk_region":"8","fk_comuna":"146","fk_localidad":"165","local_nombre":"FARMACIA JULIAN","comuna_nombre":"LOLOL","localidad_nombre":"LOLOL","local_direccion":"LOS ALERCES N\u00b0 125","funcionamiento_hora_apertura":"09:00:00","funcionamiento_hora_cierre":"21:00:00","local_telefono":"+56722941311","local_lat":"-34.728201471048415","local_lng":"-71.64579423325188","funcionamiento_dia":"jueves"},{"fecha":"2026-01-15","local_id":"4145","fk_region":"9","fk_comuna":"171","fk_localidad":"190","local_nombre":"FARMACIA LA PAZ","comuna_nombre":"COLBUN","localidad_nombre":"COLBUN","local_direccion":"AVDA. LIBERTADOR B. O\"HIGGINS N\u00b0 405-B","funcionamiento_hora_apertura":"09:00:00","funcionamiento_hora_cierre":"22:00:00","local_telefono":"+560","local_lat":"-35.696103","local_lng":"-71.406494","funcionamiento_dia":"jueves"},{"fecha":"2026-01-15","local_id":"4322","fk_region":"6","fk_comuna":"71","fk_localidad":"34","local_nombre":"AHUMADA","comuna_nombre":"QUINTERO","localidad_nombre":"QUINTERO","local_direccion":"ESTRELLA DE CHILE 191 L-1 Y 3","funcionamiento_hora_apertura":"09:00:00","funcionamiento_hora_cierre":"08:59:00","local_telefono":"+560226313691","local_lat":"-32.7854485318745","local_lng":"-71.5273151408145","funcionamiento_dia":"jueves"},{"fecha":"2026-01-15","local_id":"4377","fk_region":"11","fk_comuna":"270","fk_localidad":"289","local_nombre":"FARMACIA DR. SIMI","comuna_nombre":"PITRUFQUEN","localidad_nombre":"PITRUFQUEN","local_direccion":"CALLE JUAN AGUSTIN PALAZUELOS 718","funcionamiento_hora_apertura":"09:00:00","funcionamiento_hora_cierre":"08:59:00","local_telefono":"","local_lat":"-38.9848266","local_lng":"-72.639844","funcionamiento_dia":"jueves"},{"fecha":"2026-01-15","local_id":"4381","fk_region":"3","fk_comuna":"19","fk_localidad":"75","local_nombre":"FARMACIA FARMAPLUSS","comuna_nombre":"TALTAL","localidad_nombre":"TALTAL","local_direccion":"PRAT N\u00ba 785, TALTAL","funcionamiento_hora_apertura":"09:00:00","funcionamiento_hora_cierre":"23:00:00","local_telefono":"+56552612199","local_lat":"-25.4054866","local_lng":"-70.4824276","funcionamiento_dia":"jueves"},{"fecha":"2026-01-15","local_id":"4406","fk_region":"7","fk_comuna":"121","fk_localidad":"557","local_nombre":"ESPOZ","comuna_nombre":"QUINTA NORMAL","localidad_nombre":"TURNOS","local_direccion":"AVENIDA SAN PABLO 4102","funcionamiento_hora_apertura":"08:00:00","funcionamiento_hora_cierre":"07:59:00","local_telefono":"","local_lat":"-33.438174","local_lng":"-70.691725","funcionamiento_dia":"jueves"},{"fecha":"2026-01-15","local_id":"4410","fk_region":"9","fk_comuna":"182","fk_localidad":"201","local_nombre":"FARMACIA IGUALDAD","comuna_nombre":"PARRAL","localidad_nombre":"PARRAL","local_direccion":"IGUALDAD N\u00ba 640","funcionamiento_hora_apertura":"09:00:00","funcionamiento_hora_cierre":"01:00:00","local_telefono":"","local_lat":"-36.144520","local_lng":"-71.827224","funcionamiento_dia":"jueves"},{"fecha":"2026-01-15","local_id":"4417","fk_region":"12","fk_comuna":"287","fk_localidad":"306","local_nombre":"DEL SUR","comuna_nombre":"LOS LAGOS","localidad_nombre":"LOS LAGOS","local_direccion":"BALMACEDA NORTE N\u00ba 91","funcionamiento_hora_apertura":"09:00:00","funcionamiento_hora_cierre":"08:59:00","local_telefono":"+56632461210","local_lat":"-39.861972","local_lng":"-72.8154167","funcionamiento_dia":"jueves"},{"fecha":"2026-01-15","local_id":"4464","fk_region":"9","fk_comuna":"179","fk_localidad":"198","local_nombre":"FARMACIA DR. SIMI","comuna_nombre":"LONGAVI","localidad_nombre":"LONGAVI","local_direccion":"1 ORIENTE N\u00ba315","funcionamiento_hora_apertura":"09:00:00","funcionamiento_hora_cierre":"23:59:00","local_telefono":"+560983309","local_lat":"-35.965945","local_lng":"-71.683760","funcionamiento_dia":"jueves"},{"fecha":"2026-01-15","local_id":"4520","fk_region":"6","fk_comuna":"78","fk_localidad":"27","local_nombre":"SALCOBRAND","comuna_nombre":"VALPARAISO","localidad_nombre":"PLACILLA","local_direccion":"AV. CURAUMA NORTE 2961 LOCAL 3, VALPARAISO","funcionamiento_hora_apertura":"09:00:00","funcionamiento_hora_cierre":"23:00:00","local_telefono":"+56224223300 anexo 5488","local_lat":"-33.1317109818096","local_lng":"-71.5644492821095","funcionamiento_dia":"jueves"},{"fecha":"2026-01-15","local_id":"4544","fk_region":"6","fk_comuna":"79","fk_localidad":"429","local_nombre":"BELLFARMA","comuna_nombre":"VILLA ALEMANA","localidad_nombre":"HUANHUALI","local_direccion":"HUANHUALI 1331","funcionamiento_hora_apertura":"09:00:00","funcionamiento_hora_cierre":"18:00:00","local_telefono":"+563118844","local_lat":"-33.058657929509","local_lng":"-71.3860337445243","funcionamiento_dia":"jueves"},{"fecha":"2026-01-15","local_id":"4577","fk_region":"6","fk_comuna":"72","fk_localidad":"55","local_nombre":"SANTO REMEDIO","comuna_nombre":"RINCONADA","localidad_nombre":"RINCONADA","local_direccion":"CARRETERA SAN MARTIN N\u00b0 685","funcionamiento_hora_apertura":"09:00:00","funcionamiento_hora_cierre":"20:00:00","local_telefono":"957432515","local_lat":"-32.8334208343886","local_lng":"-70.6891530103657","funcionamiento_dia":"jueves"},{"fecha":"2026-01-15","local_id":"4589","fk_region":"13","fk_comuna":"316","fk_localidad":"335","local_nombre":"FARMACIA LA SALUD","comuna_nombre":"PUYEHUE","localidad_nombre":"PUYEHUE","local_direccion":"COCHRANE N\u00ba 104, ENTRE LAGOS","funcionamiento_hora_apertura":"10:00:00","funcionamiento_hora_cierre":"19:00:00","local_telefono":"+56642371586","local_lat":"-40.68377376608996","local_lng":"-72.59932266637878","funcionamiento_dia":"jueves"},{"fecha":"2026-01-15","local_id":"4663","fk_region":"6","fk_comuna":"80","fk_localidad":"433","local_nombre":"AZUCENA","comuna_nombre":"VI\u00d1A DEL MAR","localidad_nombre":"SANTA JULIA","local_direccion":"PASAJE BELGICA 1-D, SANTA JULIA","funcionamiento_hora_apertura":"10:00:00","funcionamiento_hora_cierre":"19:00:00","local_telefono":"+562872433","local_lat":"-33.0057735200065","local_lng":"-71.4961181973553","funcionamiento_dia":"jueves"},{"fecha":"2026-01-15","local_id":"4676","fk_region":"11","fk_comuna":"251","fk_localidad":"270","local_nombre":"FARMACIA VITASUR(L-5)","comuna_nombre":"ANGOL","localidad_nombre":"ANGOL","local_direccion":"LAUTARO N\u00b0 301 ANGOL","funcionamiento_hora_apertura":"09:00:00","funcionamiento_hora_cierre":"08:59:00","local_telefono":"+56945345421","local_lat":"-37.798409","local_lng":"-72.70941959999999","funcionamiento_dia":"jueves"},{"fecha":"2026-01-15","local_id":"4779","fk_region":"13","fk_comuna":"319","fk_localidad":"338","local_nombre":"FARMACIA FENIX","comuna_nombre":"QUEMCHI","localidad_nombre":"QUEMCHI","local_direccion":"DIEGO BAHAMONDE N\u00b0365-B QUEMCHI","funcionamiento_hora_apertura":"10:00:00","funcionamiento_hora_cierre":"18:00:00","local_telefono":"+56978992440","local_lat":"-42.144203","local_lng":"-73.473397","funcionamiento_dia":"jueves"},{"fecha":"2026-01-15","local_id":"4834","fk_region":"4","fk_comuna":"22","fk_localidad":"78","local_nombre":"FARMACIA AURORA","comuna_nombre":"CALDERA","localidad_nombre":"CALDERA","local_direccion":"CALLE CARVALLO 307","funcionamiento_hora_apertura":"09:00:00","funcionamiento_hora_cierre":"08:59:00","local_telefono":"522541721","local_lat":"-27.0675222","local_lng":"-70.8206694","funcionamiento_dia":"jueves"},{"fecha":"2026-01-01","local_id":"4854","fk_region":"5","fk_comuna":"39","fk_localidad":"95","local_nombre":"FARMACIA DR. AMIGO","comuna_nombre":"OVALLE","localidad_nombre":"OVALLE","local_direccion":"VICU\u00d1A MACKENNA 223, OVALLE","funcionamiento_hora_apertura":"00:00:00","funcionamiento_hora_cierre":"23:59:00","local_telefono":"+56963060175","local_lat":"-30.603177402771216","local_lng":"-71.20148894672695","funcionamiento_dia":"miercoles"},{"fecha":"2026-01-15","local_id":"4886","fk_region":"9","fk_comuna":"172","fk_localidad":"191","local_nombre":"FARMACIA TERMINAL","comuna_nombre":"CONSTITUCION","localidad_nombre":"CONSTITUCION","local_direccion":"BULNES N\u00ba1098-D","funcionamiento_hora_apertura":"09:00:00","funcionamiento_hora_cierre":"08:59:00","local_telefono":"+5662230282","local_lat":"-35.335734","local_lng":"-72.405489","funcionamiento_dia":"jueves"},{"fecha":"2026-01-15","local_id":"5006","fk_region":"13","fk_comuna":"304","fk_localidad":"323","local_nombre":"DRUGSTORE PATAGONIA","comuna_nombre":"FUTALEUFU","localidad_nombre":"FUTALEUFU","local_direccion":"ARTURO PRAT 330, FUTALEUFU","funcionamiento_hora_apertura":"10:00:00","funcionamiento_hora_cierre":"20:00:00","local_telefono":"+56992992586","local_lat":"-43.1852697","local_lng":"-71.8674685","funcionamiento_dia":"jueves"},{"fecha":"2026-01-15","local_id":"5245","fk_region":"8","fk_comuna":"147","fk_localidad":"166","local_nombre":"FARMACIA LEON","comuna_nombre":"MACHALI","localidad_nombre":"MACHALI","local_direccion":"ARTURO PRAT 21, MACHALI","funcionamiento_hora_apertura":"09:00:00","funcionamiento_hora_cierre":"23:59:00","local_telefono":"+560+56 962959570","local_lat":"-34.1798205","local_lng":"-70.65317829999998","funcionamiento_dia":"jueves"},{"fecha":"2026-01-15","local_id":"5296","fk_region":"13","fk_comuna":"317","fk_localidad":"336","local_nombre":"FARMACIA BUENAVIDA","comuna_nombre":"QUEILEN","localidad_nombre":"QUEILEN","local_direccion":"PEDRO AGUIRE CERDA N\u00b0162, QUEILEN","funcionamiento_hora_apertura":"09:30:00","funcionamiento_hora_cierre":"20:00:00","local_telefono":"+56+56988095665","local_lat":"-42.8899545","local_lng":"-73.4753981","funcionamiento_dia":"jueves"},{"fecha":"2026-01-15","local_id":"5318","fk_region":"7","fk_comuna":"98","fk_localidad":"567","local_nombre":"MEGA AHORRO","comuna_nombre":"LA GRANJA","localidad_nombre":"TURNO DIURNO","local_direccion":"AVENIDA CARDENAL RAUL SILVA HENRIQUEZ 9235","funcionamiento_hora_apertura":"09:00:00","funcionamiento_hora_cierre":"21:00:00","local_telefono":"","local_lat":"-33.532433","local_lng":"-70.623861","funcionamiento_dia":"jueves"},{"fecha":"2026-01-15","local_id":"5335","fk_region":"7","fk_comuna":"88","fk_localidad":"549","local_nombre":"PUNTO FARMA","comuna_nombre":"CONCHALI","localidad_nombre":"TURNOS","local_direccion":"AVENIDA EL GUANACO 4484","funcionamiento_hora_apertura":"08:00:00","funcionamiento_hora_cierre":"07:59:00","local_telefono":"","local_lat":"-33.3791064","local_lng":"-70.6579856","funcionamiento_dia":"jueves"},{"fecha":"2026-01-15","local_id":"5396","fk_region":"11","fk_comuna":"260","fk_localidad":"279","local_nombre":"FARMACIA DR. SIMI","comuna_nombre":"GORBEA","localidad_nombre":"GORBEA","local_direccion":"LORD COCHRANE N\u00b0 520","funcionamiento_hora_apertura":"09:00:00","funcionamiento_hora_cierre":"08:59:00","local_telefono":"+562491029","local_lat":"-39.10065895491932","local_lng":"-72.67413139343262","funcionamiento_dia":"jueves"},{"fecha":"2026-01-15","local_id":"5412","fk_region":"6","fk_comuna":"53","fk_localidad":"51","local_nombre":"PLAZA HIJUELAS","comuna_nombre":"HIJUELAS","localidad_nombre":"HIJUELAS","local_direccion":"MANUEL RODR\u00edGUEZ #1496 LOCAL 1","funcionamiento_hora_apertura":"10:00:00","funcionamiento_hora_cierre":"20:00:00","local_telefono":"+5696911000","local_lat":"-32.7997531","local_lng":"-71.14586550000001","funcionamiento_dia":"jueves"},{"fecha":"2026-01-15","local_id":"5439","fk_region":"15","fk_comuna":"338","fk_localidad":"357","local_nombre":"FARMACIA SALCOBRAND 625","comuna_nombre":"PUERTO NATALES","localidad_nombre":"PUERTO NATALES","local_direccion":"BULNES 699","funcionamiento_hora_apertura":"08:00:00","funcionamiento_hora_cierre":"23:59:00","local_telefono":"+5624223300","local_lat":"-51.7270026","local_lng":"-72.50157360000003","funcionamiento_dia":"jueves"},{"fecha":"2026-01-15","local_id":"5523","fk_region":"8","fk_comuna":"138","fk_localidad":"157","local_nombre":"FARMACIA CODEGUA","comuna_nombre":"CODEGUA","localidad_nombre":"CODEGUA","local_direccion":"CALLE ANDES N\u00ba 88, CODEGUA","funcionamiento_hora_apertura":"09:45:00","funcionamiento_hora_cierre":"19:30:00","local_telefono":"","local_lat":"-34.0353709","local_lng":"-70.66730009999998","funcionamiento_dia":"jueves"},{"fecha":"2026-01-15","local_id":"5539","fk_region":"9","fk_comuna":"191","fk_localidad":"210","local_nombre":"FARMACIA SAN DANIEL","comuna_nombre":"SAN CLEMENTE","localidad_nombre":"SAN CLEMENTE","local_direccion":"AVENIDA HUAMACHUCO N\u00ba632-A SAN CLEMENTE","funcionamiento_hora_apertura":"09:00:00","funcionamiento_hora_cierre":"01:00:00","local_telefono":"+560974850405","local_lat":"-35.539652","local_lng":"-71.485704","funcionamiento_dia":"jueves"},{"fecha":"2026-01-15","local_id":"5543","fk_region":"6","fk_comuna":"70","fk_localidad":"448","local_nombre":"ECOFARMACIAS","comuna_nombre":"QUILPUE","localidad_nombre":"CANAL CHACAO","local_direccion":"LOS LUNES N\u00b013 QUILPU\u00c9","funcionamiento_hora_apertura":"09:00:00","funcionamiento_hora_cierre":"19:00:00","local_telefono":"+562270418","local_lat":"-33.035851","local_lng":"-71.4841017","funcionamiento_dia":"jueves"},{"fecha":"2026-01-15","local_id":"5662","fk_region":"10","fk_comuna":"202","fk_localidad":"221","local_nombre":"CRUZ VERDE","comuna_nombre":"CABRERO","localidad_nombre":"CABRERO","local_direccion":"RIO CLARO 199","funcionamiento_hora_apertura":"08:00:00","funcionamiento_hora_cierre":"22:00:00","local_telefono":"+56232787329","local_lat":"-37.034601","local_lng":"-72.401928","funcionamiento_dia":"jueves"},{"fecha":"2026-01-15","local_id":"5669","fk_region":"4","fk_comuna":"24","fk_localidad":"80","local_nombre":"FARMACIA RED DE CLINICAS REGIONALES","comuna_nombre":"COPIAPO","localidad_nombre":"COPIAPO","local_direccion":"CALLE INFANTE 861","funcionamiento_hora_apertura":"09:00:00","funcionamiento_hora_cierre":"22:00:00","local_telefono":"984481445","local_lat":"-27.36572818874678","local_lng":"-70.32789891105382","funcionamiento_dia":"jueves"},{"fecha":"2026-01-15","local_id":"5964","fk_region":"2","fk_comuna":"9","fk_localidad":"65","local_nombre":"FARMACIA ALGARROBOS","comuna_nombre":"IQUIQUE","localidad_nombre":"IQUIQUE","local_direccion":"AVENIDA RAMON PEREZ OPAZO 2621","funcionamiento_hora_apertura":"08:00:00","funcionamiento_hora_cierre":"23:59:00","local_telefono":"78249611","local_lat":"-20.2519224","local_lng":"-70.1260679","funcionamiento_dia":"jueves"},{"fecha":"2026-01-01","local_id":"5990","fk_region":"5","fk_comuna":"36","fk_localidad":"402","local_nombre":"FARMACIA DR AMIGO","comuna_nombre":"LA SERENA","localidad_nombre":"LA SERENA","local_direccion":"BALMACEDA N\u00b0 438","funcionamiento_hora_apertura":"00:00:00","funcionamiento_hora_cierre":"23:59:00","local_telefono":"+5663060175","local_lat":"-29.902602536881606","local_lng":"-71.24978225337296","funcionamiento_dia":"miercoles"},{"fecha":"2026-01-15","local_id":"5995","fk_region":"12","fk_comuna":"293","fk_localidad":"312","local_nombre":"R\u00cdO BUENO","comuna_nombre":"RIO BUENO","localidad_nombre":"RIO BUENO","local_direccion":"ESMERALDA N\u00b0 1285","funcionamiento_hora_apertura":"09:00:00","funcionamiento_hora_cierre":"08:59:00","local_telefono":"+56","local_lat":"-40.333108","local_lng":"-72.953781","funcionamiento_dia":"jueves"},{"fecha":"2026-01-15","local_id":"6005","fk_region":"8","fk_comuna":"148","fk_localidad":"167","local_nombre":"FARMACIA MANANTIALES","comuna_nombre":"MALLOA","localidad_nombre":"MALLOA","local_direccion":"Daniel Bernales N\u00b03","funcionamiento_hora_apertura":"09:00:00","funcionamiento_hora_cierre":"19:00:00","local_telefono":"","local_lat":"-34.44190310714896","local_lng":"-70.94428390807343","funcionamiento_dia":"jueves"},{"fecha":"2026-01-15","local_id":"6026","fk_region":"1","fk_comuna":"1","fk_localidad":"57","local_nombre":"SAN GABRIEL","comuna_nombre":"ARICA","localidad_nombre":"ARICA - CENTRAL","local_direccion":"AVENIDA SENADOR LUIS VALENTE ROSSI 2330-2332","funcionamiento_hora_apertura":"09:00:00","funcionamiento_hora_cierre":"21:00:00","local_telefono":"954062050","local_lat":"-18.493725","local_lng":"-70.2949143","funcionamiento_dia":"jueves"},{"fecha":"2026-01-15","local_id":"6028","fk_region":"8","fk_comuna":"140","fk_localidad":"159","local_nombre":"DIVINA SALUD","comuna_nombre":"COLTAUCO","localidad_nombre":"COLTAUCO","local_direccion":"ARTURO PRAT 321","funcionamiento_hora_apertura":"09:00:00","funcionamiento_hora_cierre":"18:30:00","local_telefono":"+56992573946","local_lat":"-34.29296990000001","local_lng":"-71.08049789140166","funcionamiento_dia":"jueves"},{"fecha":"2026-01-15","local_id":"6030","fk_region":"13","fk_comuna":"307","fk_localidad":"326","local_nombre":"FARMACIA DEL DR. SIMI","comuna_nombre":"LOS MUERMOS","localidad_nombre":"LOS MUERMOS","local_direccion":"BERNARDO O\u00b4HIGGINS N\u00b01, LOS MUERMOS","funcionamiento_hora_apertura":"08:00:00","funcionamiento_hora_cierre":"23:59:00","local_telefono":"+56+56652211648","local_lat":"-41.3961513","local_lng":"-73.4608997","funcionamiento_dia":"jueves"},{"fecha":"2026-01-15","local_id":"6041","fk_region":"13","fk_comuna":"312","fk_localidad":"331","local_nombre":"FARMACIA SURFARMA","comuna_nombre":"PUERTO OCTAY","localidad_nombre":"PUERTO OCTAY","local_direccion":"CALLE AMUNATEGUI 598","funcionamiento_hora_apertura":"09:00:00","funcionamiento_hora_cierre":"19:00:00","local_telefono":"83763772","local_lat":"-40.9731966","local_lng":"-72.8835636","funcionamiento_dia":"jueves"},{"fecha":"2026-01-15","local_id":"6056","fk_region":"3","fk_comuna":"20","fk_localidad":"76","local_nombre":"FARMACIA TOCOPILLA","comuna_nombre":"TOCOPILLA","localidad_nombre":"TOCOPILLA","local_direccion":"21 DE MAYO 1532-1524","funcionamiento_hora_apertura":"09:00:00","funcionamiento_hora_cierre":"23:00:00","local_telefono":"+56931169654","local_lat":"-22.09384082331364","local_lng":"-70.2016776021005","funcionamiento_dia":"jueves"},{"fecha":"2026-01-15","local_id":"6063","fk_region":"16","fk_comuna":"235","fk_localidad":"254","local_nombre":"FARMACIAS ARAGON","comuna_nombre":"SAN CARLOS","localidad_nombre":"SAN CARLOS","local_direccion":"CALLE INDEPENDENCIA 601","funcionamiento_hora_apertura":"09:00:00","funcionamiento_hora_cierre":"08:59:00","local_telefono":"2697147","local_lat":"-36.4255212","local_lng":"-71.957315","funcionamiento_dia":"jueves"},{"fecha":"2026-01-15","local_id":"6115","fk_region":"7","fk_comuna":"111","fk_localidad":"552","local_nombre":"FARMALEX","comuna_nombre":"PADRE HURTADO","localidad_nombre":"TURNOS","local_direccion":"CALLE PRIMERA TRANSVERSAL 353","funcionamiento_hora_apertura":"08:00:00","funcionamiento_hora_cierre":"07:59:00","local_telefono":"","local_lat":"-33.563030","local_lng":"-70.796775","funcionamiento_dia":"jueves"},{"fecha":"2026-01-15","local_id":"6124","fk_region":"7","fk_comuna":"125","fk_localidad":"560","local_nombre":"RAYEN","comuna_nombre":"SAN JOAQUIN","localidad_nombre":"TURNOS","local_direccion":"CALLE BENOZZO GOZZOLI 5395","funcionamiento_hora_apertura":"08:00:00","funcionamiento_hora_cierre":"07:59:00","local_telefono":"","local_lat":"-33.5060928","local_lng":"-70.6293145","funcionamiento_dia":"jueves"},{"fecha":"2026-01-15","local_id":"6166","fk_region":"9","fk_comuna":"190","fk_localidad":"209","local_nombre":"FARMACIA MANZANO","comuna_nombre":"SAGRADA FAMILIA","localidad_nombre":"SAGRADA FAMILIA","local_direccion":"AVENIDA ESPERANZA N\u00ba537-A SAGRADA FAMILIA","funcionamiento_hora_apertura":"09:00:00","funcionamiento_hora_cierre":"22:00:00","local_telefono":"+56988558080","local_lat":"-34.999543123051666","local_lng":"-71.37864796627046","funcionamiento_dia":"jueves"},{"fecha":"2026-01-15","local_id":"6178","fk_region":"7","fk_comuna":"85","fk_localidad":"563","local_nombre":"OMEGA","comuna_nombre":"CERRILLOS","localidad_nombre":"TURNO DIURNO","local_direccion":"CALLE MEXICO 302","funcionamiento_hora_apertura":"09:00:00","funcionamiento_hora_cierre":"21:00:00","local_telefono":"","local_lat":"-33.5097284","local_lng":"-70.7369698","funcionamiento_dia":"jueves"},{"fecha":"2026-01-15","local_id":"6188","fk_region":"6","fk_comuna":"70","fk_localidad":"439","local_nombre":"FARMACIAS AHORRO","comuna_nombre":"QUILPUE","localidad_nombre":"MARGA - MARGA","local_direccion":"CALLE MARGA MARGA 1505","funcionamiento_hora_apertura":"09:00:00","funcionamiento_hora_cierre":"21:00:00","local_telefono":"940053836","local_lat":"-33.0556244","local_lng":"-71.4267625","funcionamiento_dia":"jueves"},{"fecha":"2026-01-15","local_id":"6263","fk_region":"6","fk_comuna":"56","fk_localidad":"12","local_nombre":"DR. SIMI","comuna_nombre":"LA CALERA","localidad_nombre":"LA CALERA","local_direccion":"AVENIDA LATORRE 280","funcionamiento_hora_apertura":"09:00:00","funcionamiento_hora_cierre":"08:59:00","local_telefono":"992426822","local_lat":"-32.7895424","local_lng":"-71.1855976","funcionamiento_dia":"jueves"},{"fecha":"2026-01-15","local_id":"6269","fk_region":"6","fk_comuna":"51","fk_localidad":"9","local_nombre":"SALCOBRAND","comuna_nombre":"EL QUISCO","localidad_nombre":"EL QUISCO","local_direccion":"AVENIDA ISIDORO DUBOURNAIS 195","funcionamiento_hora_apertura":"09:00:00","funcionamiento_hora_cierre":"23:00:00","local_telefono":"","local_lat":"-33.3969935","local_lng":"-71.6946404","funcionamiento_dia":"jueves"},{"fecha":"2026-01-01","local_id":"6351","fk_region":"10","fk_comuna":"210","fk_localidad":"229","local_nombre":"FARMACIA CRUZ VERDE","comuna_nombre":"CONCEPCION","localidad_nombre":"COLLAO","local_direccion":"AVENIDA ROOSEVELT 1694","funcionamiento_hora_apertura":"00:00:00","funcionamiento_hora_cierre":"23:59:00","local_telefono":"","local_lat":"-36.8222156","local_lng":"-73.0359079","funcionamiento_dia":"miercoles"},{"fecha":"2026-01-15","local_id":"6372","fk_region":"8","fk_comuna":"158","fk_localidad":"177","local_nombre":"FARMACIA FARMAS","comuna_nombre":"PICHILEMU","localidad_nombre":"PICHILEMU","local_direccion":"CALLE AGUSTIN ROSS 366","funcionamiento_hora_apertura":"09:00:00","funcionamiento_hora_cierre":"08:59:00","local_telefono":"","local_lat":"-34.40372046549723","local_lng":"-72.02485647672118","funcionamiento_dia":"jueves"},{"fecha":"2026-01-15","local_id":"6420","fk_region":"6","fk_comuna":"60","fk_localidad":"18","local_nombre":"PHARMACY Y DRUGSTORE","comuna_nombre":"LLAY LLAY","localidad_nombre":"LLAY - LLAY","local_direccion":"CALLE BALMACEDA N\u00b0 1121","funcionamiento_hora_apertura":"09:00:00","funcionamiento_hora_cierre":"23:00:00","local_telefono":"978945320","local_lat":"-32.8410618","local_lng":"-70.9571869","funcionamiento_dia":"jueves"},{"fecha":"2026-01-15","local_id":"6592","fk_region":"7","fk_comuna":"116","fk_localidad":"135","local_nombre":"CRUZ VERDE","comuna_nombre":"PIRQUE","localidad_nombre":"PIRQUE","local_direccion":"CAMINO CARLOS VIAL INFANTE 25","funcionamiento_hora_apertura":"09:00:00","funcionamiento_hora_cierre":"21:00:00","local_telefono":"+56","local_lat":"-33.654566","local_lng":"-70.573071","funcionamiento_dia":"jueves"},{"fecha":"2026-01-15","local_id":"6607","fk_region":"5","fk_comuna":"33","fk_localidad":"89","local_nombre":"DOCTOR SIMI","comuna_nombre":"COQUIMBO","localidad_nombre":"COQUIMBO","local_direccion":"CALLE LOS ALAMOS 545","funcionamiento_hora_apertura":"09:00:00","funcionamiento_hora_cierre":"08:59:00","local_telefono":"985268944","local_lat":"-29.9878225","local_lng":"-71.3361009","funcionamiento_dia":"jueves"},{"fecha":"2026-01-15","local_id":"6651","fk_region":"11","fk_comuna":"281","fk_localidad":"300","local_nombre":"FARMACIA DR. SIMI F0286","comuna_nombre":"VILLARRICA","localidad_nombre":"VILLARRICA","local_direccion":"CALLE PEDRO LEON GALLO 706","funcionamiento_hora_apertura":"09:00:00","funcionamiento_hora_cierre":"23:59:00","local_telefono":"996402395","local_lat":"-39.2841788","local_lng":"-72.2295409","funcionamiento_dia":"jueves"},{"fecha":"2026-01-15","local_id":"6677","fk_region":"7","fk_comuna":"91","fk_localidad":"110","local_nombre":"FARMAS","comuna_nombre":"EL MONTE","localidad_nombre":"EL MONTE","local_direccion":"AVENIDA LOS LIBERTADORES 341","funcionamiento_hora_apertura":"09:00:00","funcionamiento_hora_cierre":"21:00:00","local_telefono":"","local_lat":"-33.679734","local_lng":"-70.980203","funcionamiento_dia":"jueves"},{"fecha":"2026-01-15","local_id":"6687","fk_region":"12","fk_comuna":"289","fk_localidad":"308","local_nombre":"CRUCES","comuna_nombre":"MARIQUINA","localidad_nombre":"MARIQUINA","local_direccion":"CARLOS ACHAR\u00c1N N\u00b0 1360","funcionamiento_hora_apertura":"09:00:00","funcionamiento_hora_cierre":"08:59:00","local_telefono":"+56","local_lat":"-39.539893","local_lng":"-72.962768","funcionamiento_dia":"jueves"},{"fecha":"2026-01-15","local_id":"6689","fk_region":"9","fk_comuna":"192","fk_localidad":"211","local_nombre":"FARMACIA MIMIZA","comuna_nombre":"SAN JAVIER","localidad_nombre":"SAN JAVIER","local_direccion":"ARTURO PRAT N\u00b02599 SAN JAVIER","funcionamiento_hora_apertura":"09:00:00","funcionamiento_hora_cierre":"01:00:00","local_telefono":"+560983259741","local_lat":"-35.594582","local_lng":"-71.733838","funcionamiento_dia":"jueves"},{"fecha":"2026-01-15","local_id":"6694","fk_region":"8","fk_comuna":"136","fk_localidad":"155","local_nombre":"FARMACIA DOCTOR FARMA","comuna_nombre":"CHEPICA","localidad_nombre":"CHEPICA","local_direccion":"AVENIDA 18 DE SEPTIEMBRE, CH\u00e9PICA","funcionamiento_hora_apertura":"09:00:00","funcionamiento_hora_cierre":"19:00:00","local_telefono":"+56967797925","local_lat":"-34.72744656158563","local_lng":"-71.27391203108246","funcionamiento_dia":"jueves"},{"fecha":"2026-01-15","local_id":"6710","fk_region":"9","fk_comuna":"174","fk_localidad":"418","local_nombre":"FARMACIA SOLUFARMA","comuna_nombre":"CURICO","localidad_nombre":"CURICO PERIMETRAL","local_direccion":"AVENIDA BALMACEDA N\u00ba438-A CURIC\u00d3","funcionamiento_hora_apertura":"09:00:00","funcionamiento_hora_cierre":"23:00:00","local_telefono":"+56752424510","local_lat":"-34.997102","local_lng":"-71.248139","funcionamiento_dia":"jueves"},{"fecha":"2026-01-01","local_id":"6747","fk_region":"6","fk_comuna":"70","fk_localidad":"33","local_nombre":"DR. AMIGO","comuna_nombre":"QUILPUE","localidad_nombre":"QUILPUE","local_direccion":"CALLE DIEGO PORTALES 878","funcionamiento_hora_apertura":"00:00:00","funcionamiento_hora_cierre":"23:59:00","local_telefono":"99625048","local_lat":"-33.0465129","local_lng":"-71.4413327","funcionamiento_dia":"miercoles"},{"fecha":"2026-01-15","local_id":"6789","fk_region":"6","fk_comuna":"78","fk_localidad":"426","local_nombre":"DR. SIMI","comuna_nombre":"VALPARAISO","localidad_nombre":"PLACERES","local_direccion":"AV. MATTA N\u00ba 712","funcionamiento_hora_apertura":"10:00:00","funcionamiento_hora_cierre":"18:00:00","local_telefono":"+56+56352296774","local_lat":"-33.040586959589554","local_lng":"-71.59055438465576","funcionamiento_dia":"jueves"},{"fecha":"2026-01-15","local_id":"6852","fk_region":"13","fk_comuna":"309","fk_localidad":"386","local_nombre":"FARMACIA SOLE","comuna_nombre":"OSORNO","localidad_nombre":"SECTOR RAHUE","local_direccion":"CALLE NUEVA PONIENTE 885","funcionamiento_hora_apertura":"09:00:00","funcionamiento_hora_cierre":"21:00:00","local_telefono":"","local_lat":"-40.57797695121997","local_lng":"-73.17222391719665","funcionamiento_dia":"jueves"},{"fecha":"2026-01-15","local_id":"6858","fk_region":"6","fk_comuna":"62","fk_localidad":"23","local_nombre":"DR. SIMI","comuna_nombre":"NOGALES","localidad_nombre":"NOGALES","local_direccion":"PEDRO FELIX VICU\u00d1A 268, LOCAL 2","funcionamiento_hora_apertura":"10:00:00","funcionamiento_hora_cierre":"18:00:00","local_telefono":"","local_lat":"-32.7351239","local_lng":"-71.2013612","funcionamiento_dia":"jueves"},{"fecha":"2026-01-15","local_id":"6870","fk_region":"3","fk_comuna":"15","fk_localidad":"71","local_nombre":"FARMACIA ALI SPA","comuna_nombre":"MEJILLONES","localidad_nombre":"MEJILLONES","local_direccion":"ESTER PIZARRO PEREZ 1253","funcionamiento_hora_apertura":"09:00:00","funcionamiento_hora_cierre":"23:00:00","local_telefono":"+569","local_lat":"-23.105562","local_lng":"-70.443409","funcionamiento_dia":"jueves"},{"fecha":"2026-01-15","local_id":"6895","fk_region":"8","fk_comuna":"152","fk_localidad":"171","local_nombre":"FARMACIA OLIFARMA","comuna_nombre":"OLIVAR","localidad_nombre":"OLIVAR","local_direccion":"AVENIDA JOSE HIPOLITO SALAS 112","funcionamiento_hora_apertura":"09:00:00","funcionamiento_hora_cierre":"21:00:00","local_telefono":"920404104","local_lat":"-34.209933","local_lng":"-70.8220087","funcionamiento_dia":"jueves"},{"fecha":"2026-01-15","local_id":"6950","fk_region":"15","fk_comuna":"339","fk_localidad":"358","local_nombre":"FARMACIA CRUZ VERDE 731","comuna_nombre":"PUNTA ARENAS","localidad_nombre":"PUNTA ARENAS","local_direccion":"CALLE BORIES 998","funcionamiento_hora_apertura":"09:00:00","funcionamiento_hora_cierre":"23:00:00","local_telefono":"612244142","local_lat":"-53.1616125","local_lng":"-70.90849299999999","funcionamiento_dia":"jueves"},{"fecha":"2026-01-15","local_id":"6958","fk_region":"7","fk_comuna":"114","fk_localidad":"553","local_nombre":"DRUGSTORE","comuna_nombre":"PE\u00d1AFLOR","localidad_nombre":"TURNOS","local_direccion":"AVENIDA VICU\u00d1A MACKENNA 1545","funcionamiento_hora_apertura":"08:00:00","funcionamiento_hora_cierre":"07:59:00","local_telefono":"","local_lat":"-33.6102296","local_lng":"-70.8745778","funcionamiento_dia":"jueves"},{"fecha":"2026-01-15","local_id":"7009","fk_region":"6","fk_comuna":"77","fk_localidad":"39","local_nombre":"DR. SIMI","comuna_nombre":"SANTO DOMINGO","localidad_nombre":"SANTO DOMINGO","local_direccion":"AVENIDA TENIENTE LUIS CRUZ MARTINEZ 54","funcionamiento_hora_apertura":"09:00:00","funcionamiento_hora_cierre":"21:00:00","local_telefono":"965283653","local_lat":"-33.64484","local_lng":"-71.62511","funcionamiento_dia":"jueves"},{"fecha":"2026-01-15","local_id":"7027","fk_region":"6","fk_comuna":"80","fk_localidad":"28","local_nombre":"FARMA VI\u00d1A","comuna_nombre":"VI\u00d1A DEL MAR","localidad_nombre":"PLAN DE VI\u00d1A","local_direccion":"5 NORTE 430 L-12 Y 13","funcionamiento_hora_apertura":"09:00:00","funcionamiento_hora_cierre":"23:00:00","local_telefono":"+5696791206","local_lat":"-33.0180495","local_lng":"-71.5541755","funcionamiento_dia":"jueves"},{"fecha":"2026-01-15","local_id":"7034","fk_region":"13","fk_comuna":"309","fk_localidad":"328","local_nombre":"FARMACIA B\u00dcHLER","comuna_nombre":"OSORNO","localidad_nombre":"SECTOR CENTRO","local_direccion":"AV. GUILLERMO B\u00fcHLER N 2005 LOCAL 3 Y 4 OSORNO","funcionamiento_hora_apertura":"09:00:00","funcionamiento_hora_cierre":"23:59:00","local_telefono":"+5656967698175","local_lat":"-40.5917535","local_lng":"-73.1255912","funcionamiento_dia":"jueves"},{"fecha":"2026-01-15","local_id":"7147","fk_region":"6","fk_comuna":"80","fk_localidad":"22","local_nombre":"DR. SIMI","comuna_nombre":"VI\u00d1A DEL MAR","localidad_nombre":"MIRAFLORES ALTO","local_direccion":"AV. E. FREI M. 3544 L-1","funcionamiento_hora_apertura":"09:00:00","funcionamiento_hora_cierre":"20:00:00","local_telefono":"+562337865","local_lat":"-33.0213084","local_lng":"-71.51519100000002","funcionamiento_dia":"jueves"},{"fecha":"2026-01-15","local_id":"7153","fk_region":"13","fk_comuna":"308","fk_localidad":"327","local_nombre":"FARMACIA HERBARIO MAULLIN","comuna_nombre":"MAULLIN","localidad_nombre":"MAULLIN","local_direccion":"O'HIGGINS INTERIOR SIN MAULLIN","funcionamiento_hora_apertura":"09:00:00","funcionamiento_hora_cierre":"21:00:00","local_telefono":"+560991004524","local_lat":"-41.6208506","local_lng":"-73.5940675","funcionamiento_dia":"jueves"},{"fecha":"2026-01-15","local_id":"7280","fk_region":"7","fk_comuna":"123","fk_localidad":"559","local_nombre":"BENMAR","comuna_nombre":"RENCA","localidad_nombre":"TURNOS","local_direccion":"AVENIDA EL MONTIJO 1831","funcionamiento_hora_apertura":"08:00:00","funcionamiento_hora_cierre":"07:59:00","local_telefono":"","local_lat":"-33.39538","local_lng":"-70.75341","funcionamiento_dia":"jueves"},{"fecha":"2026-01-15","local_id":"7304","fk_region":"7","fk_comuna":"115","fk_localidad":"554","local_nombre":"LA SOLUCI\u00d3N","comuna_nombre":"PE\u00d1ALOLEN","localidad_nombre":"TURNOS","local_direccion":"AVENIDA GRECIA 5893","funcionamiento_hora_apertura":"08:00:00","funcionamiento_hora_cierre":"07:59:00","local_telefono":"","local_lat":"-33.4699766","local_lng":"-70.57374","funcionamiento_dia":"jueves"},{"fecha":"2026-01-15","local_id":"7504","fk_region":"6","fk_comuna":"74","fk_localidad":"56","local_nombre":"SAN ESTEBAN","comuna_nombre":"SAN ESTEBAN","localidad_nombre":"SAN ESTEBAN","local_direccion":"AVENIDA ALESSANDRI N\u00b0 1609","funcionamiento_hora_apertura":"10:00:00","funcionamiento_hora_cierre":"20:00:00","local_telefono":"999198932","local_lat":"-32.8118822","local_lng":"-70.585855","funcionamiento_dia":"jueves"},{"fecha":"2026-01-01","local_id":"7599","fk_region":"6","fk_comuna":"79","fk_localidad":"40","local_nombre":"FARMAQUINTA","comuna_nombre":"VILLA ALEMANA","localidad_nombre":"VILLA ALEMANA","local_direccion":"AVENIDA VALPARAISO 1621","funcionamiento_hora_apertura":"00:00:00","funcionamiento_hora_cierre":"23:59:00","local_telefono":"79859135","local_lat":"-33.0449112","local_lng":"-71.3856936","funcionamiento_dia":"miercoles"},{"fecha":"2026-01-15","local_id":"7693","fk_region":"8","fk_comuna":"161","fk_localidad":"180","local_nombre":"FARMACIA INTEGRAL","comuna_nombre":"QUINTA DE TILCOCO","localidad_nombre":"QUINTA DE TILCOCO","local_direccion":"AVENIDA TOMAS ARGOMEDO 1667","funcionamiento_hora_apertura":"08:00:00","funcionamiento_hora_cierre":"23:59:00","local_telefono":"984760958","local_lat":"-34.3537704","local_lng":"-70.962348","funcionamiento_dia":"jueves"},{"fecha":"2026-01-15","local_id":"7787","fk_region":"6","fk_comuna":"73","fk_localidad":"518","local_nombre":"ALTO MIRADOR","comuna_nombre":"SAN ANTONIO","localidad_nombre":"ALTO MIRADOR","local_direccion":"AVENIDA MANUEL MONTT TORRES 993-A","funcionamiento_hora_apertura":"09:30:00","funcionamiento_hora_cierre":"21:00:00","local_telefono":"+56949575470","local_lat":"-33.591636367322955","local_lng":"-71.59806830369624","funcionamiento_dia":"jueves"},{"fecha":"2026-01-15","local_id":"7798","fk_region":"10","fk_comuna":"217","fk_localidad":"236","local_nombre":"FARMACIA LAJA SALUD","comuna_nombre":"LAJA","localidad_nombre":"LAJA","local_direccion":"ARTURO PRAT 479 LOCAL 2","funcionamiento_hora_apertura":"08:00:00","funcionamiento_hora_cierre":"22:00:00","local_telefono":"+56931213903","local_lat":"-37.2779226","local_lng":"-72.7166167","funcionamiento_dia":"jueves"},{"fecha":"2026-01-15","local_id":"7801","fk_region":"7","fk_comuna":"113","fk_localidad":"572","local_nombre":"DYLAN","comuna_nombre":"PEDRO AGUIRRE CERDA","localidad_nombre":"TURNO DIURNO","local_direccion":"CALLE TILAMA 3210","funcionamiento_hora_apertura":"09:00:00","funcionamiento_hora_cierre":"21:00:00","local_telefono":"","local_lat":"-33.4939915","local_lng":"-70.6774555","funcionamiento_dia":"jueves"},{"fecha":"2026-01-15","local_id":"7864","fk_region":"13","fk_comuna":"309","fk_localidad":"539","local_nombre":"FARMACIA VIDSAL","comuna_nombre":"OSORNO","localidad_nombre":"FRANCKE","local_direccion":"AVENIDA HEROES DE LA CONCEPCION 546","funcionamiento_hora_apertura":"10:00:00","funcionamiento_hora_cierre":"19:30:00","local_telefono":"42452182","local_lat":"-40.5647638","local_lng":"-73.1515905","funcionamiento_dia":"jueves"},{"fecha":"2026-01-15","local_id":"7882","fk_region":"6","fk_comuna":"69","fk_localidad":"437","local_nombre":"QFARMA","comuna_nombre":"QUILLOTA","localidad_nombre":"COPA DE AGUA","local_direccion":"O'Higgins 1725, local 2","funcionamiento_hora_apertura":"09:00:00","funcionamiento_hora_cierre":"21:00:00","local_telefono":"+563208123","local_lat":"-32.8985798","local_lng":"-71.2504896","funcionamiento_dia":"jueves"},{"fecha":"2026-01-15","local_id":"7922","fk_region":"8","fk_comuna":"147","fk_localidad":"523","local_nombre":"FARMACIA ALEMANA","comuna_nombre":"MACHALI","localidad_nombre":"COYA","local_direccion":"PEDRO AGUIRRE CERDA 940, COYA","funcionamiento_hora_apertura":"09:00:00","funcionamiento_hora_cierre":"21:00:00","local_telefono":"+56995029501","local_lat":"-34.20639105298255","local_lng":"-70.53115476071319","funcionamiento_dia":"jueves"},{"fecha":"2026-01-15","local_id":"7929","fk_region":"3","fk_comuna":"17","fk_localidad":"73","local_nombre":"VIZCACHA","comuna_nombre":"SAN PEDRO DE ATACAMA","localidad_nombre":"SAN PEDRO DE ATACAMA","local_direccion":"CALLE VILAMA 425","funcionamiento_hora_apertura":"09:00:00","funcionamiento_hora_cierre":"21:00:00","local_telefono":"930788553","local_lat":"-22.9113417","local_lng":"-68.2001613","funcionamiento_dia":"jueves"},{"fecha":"2026-01-15","local_id":"7955","fk_region":"6","fk_comuna":"80","fk_localidad":"519","local_nombre":"SANTA INES","comuna_nombre":"VI\u00d1A DEL MAR","localidad_nombre":"SANTA IN\u00c9S","local_direccion":"CALLE CUATRO N\u00b0 2480 LOCAL 1 Y 2","funcionamiento_hora_apertura":"10:00:00","funcionamiento_hora_cierre":"19:00:00","local_telefono":"+56936300991","local_lat":"-33.00405363815621","local_lng":"-71.53723984232865","funcionamiento_dia":"jueves"},{"fecha":"2026-01-15","local_id":"7968","fk_region":"6","fk_comuna":"80","fk_localidad":"428","local_nombre":"UNIVERSAL","comuna_nombre":"VI\u00d1A DEL MAR","localidad_nombre":"AGUA SANTA","local_direccion":"CALLE MERCED ORIENTE 60","funcionamiento_hora_apertura":"09:30:00","funcionamiento_hora_cierre":"18:00:00","local_telefono":"927884267","local_lat":"-33.0298523","local_lng":"-71.5619516","funcionamiento_dia":"jueves"},{"fecha":"2026-01-15","local_id":"7974","fk_region":"11","fk_comuna":"275","fk_localidad":"294","local_nombre":"FARMACIA MAICAO L-457","comuna_nombre":"TEMUCO","localidad_nombre":"TEMUCO","local_direccion":"AVENIDA MANUEL BULNES N\u00b0 537 537","funcionamiento_hora_apertura":"09:00:00","funcionamiento_hora_cierre":"21:00:00","local_telefono":"958207370","local_lat":"-38.738869","local_lng":"-72.5890315","funcionamiento_dia":"jueves"},{"fecha":"2026-01-15","local_id":"8002","fk_region":"10","fk_comuna":"213","fk_localidad":"232","local_nombre":"FARMACIA FARMATODO","comuna_nombre":"CURANILAHUE","localidad_nombre":"CURANILAHUE LOCALIDAD 1","local_direccion":"LOS LEONES N\u00b0 790 (ACCESO POR RIQUELME 751)","funcionamiento_hora_apertura":"09:00:00","funcionamiento_hora_cierre":"08:59:00","local_telefono":"+5611111111","local_lat":"-37.47594083587033","local_lng":"-73.34508545875248","funcionamiento_dia":"jueves"},{"fecha":"2026-01-15","local_id":"8012","fk_region":"6","fk_comuna":"344","fk_localidad":"49","local_nombre":"FARMA SUR","comuna_nombre":"CASABLANCA","localidad_nombre":"CASABLANCA","local_direccion":"Constituci\u00f3n 380","funcionamiento_hora_apertura":"09:00:00","funcionamiento_hora_cierre":"23:00:00","local_telefono":"+56949575470","local_lat":"-33.3190376","local_lng":"-71.40763179999999","funcionamiento_dia":"jueves"},{"fecha":"2026-01-01","local_id":"8034","fk_region":"12","fk_comuna":"290","fk_localidad":"309","local_nombre":"CRUZ VERDE","comuna_nombre":"VALDIVIA","localidad_nombre":"VALDIVIA","local_direccion":"AVENIDA RAM\u00d3N PICARTE N\u00b0 310","funcionamiento_hora_apertura":"00:00:00","funcionamiento_hora_cierre":"23:59:00","local_telefono":"","local_lat":"-39.81404129174377","local_lng":"-73.24508514320313","funcionamiento_dia":"miercoles"},{"fecha":"2026-01-15","local_id":"8098","fk_region":"6","fk_comuna":"70","fk_localidad":"453","local_nombre":"EL RETIRO","comuna_nombre":"QUILPUE","localidad_nombre":"EL RETIRO","local_direccion":"San Enrique N\u00b0 1324 local 1","funcionamiento_hora_apertura":"09:30:00","funcionamiento_hora_cierre":"19:30:00","local_telefono":"+56998311688","local_lat":"-33.0392413","local_lng":"-71.4409721","funcionamiento_dia":"jueves"},{"fecha":"2026-01-15","local_id":"8127","fk_region":"7","fk_comuna":"112","fk_localidad":"571","local_nombre":"LAGUNA","comuna_nombre":"PAINE","localidad_nombre":"TURNO DIURNO","local_direccion":"AVENIDA MIGUEL LETELIER ","funcionamiento_hora_apertura":"09:00:00","funcionamiento_hora_cierre":"21:00:00","local_telefono":"","local_lat":"-33.87333","local_lng":"-70.87815","funcionamiento_dia":"jueves"},{"fecha":"2026-01-15","local_id":"8141","fk_region":"8","fk_comuna":"150","fk_localidad":"169","local_nombre":"FARMACIA DR SIMI","comuna_nombre":"NANCAGUA","localidad_nombre":"NANCAGUA","local_direccion":"AVENIDA ARMANDO JARAMILLO N\u00b0217","funcionamiento_hora_apertura":"09:00:00","funcionamiento_hora_cierre":"23:00:00","local_telefono":"+56","local_lat":"-34.65108038591084","local_lng":"-71.20401733069247","funcionamiento_dia":"jueves"},{"fecha":"2026-01-15","local_id":"8163","fk_region":"11","fk_comuna":"271","fk_localidad":"290","local_nombre":"FARMACIAS MAICAO L 419","comuna_nombre":"PUCON","localidad_nombre":"PUCON","local_direccion":"AVDA BERNARDO O\u00b4HIGGINS N\u00b0 372 PUCON","funcionamiento_hora_apertura":"09:00:00","funcionamiento_hora_cierre":"08:59:00","local_telefono":"","local_lat":"-39.27609","local_lng":"-71.97556","funcionamiento_dia":"jueves"},{"fecha":"2026-01-15","local_id":"8167","fk_region":"14","fk_comuna":"329","fk_localidad":"348","local_nombre":"FARMACIA LAS GUAITECAS","comuna_nombre":"GUAITECAS","localidad_nombre":"GUAITECAS","local_direccion":"CALLE COQUIMBO SN S\/N","funcionamiento_hora_apertura":"10:00:00","funcionamiento_hora_cierre":"20:00:00","local_telefono":"931875865","local_lat":"-43.89677139318784","local_lng":"-73.74589736785306","funcionamiento_dia":"jueves"},{"fecha":"2026-01-15","local_id":"9003","fk_region":"6","fk_comuna":"79","fk_localidad":"40","local_nombre":"FARMAHORRO SYM","comuna_nombre":"VILLA ALEMANA","localidad_nombre":"VILLA ALEMANA","local_direccion":"Santa Rosa 282","funcionamiento_hora_apertura":"09:00:00","funcionamiento_hora_cierre":"23:00:00","local_telefono":"+5695509750","local_lat":"-33.0469699","local_lng":"-71.3544871","funcionamiento_dia":"jueves"},{"fecha":"2026-01-15","local_id":"9018","fk_region":"8","fk_comuna":"156","fk_localidad":"175","local_nombre":"Farmacia Dr Simi ","comuna_nombre":"PEUMO","localidad_nombre":"PEUMO","local_direccion":"Walker Mart\u00ednez 407","funcionamiento_hora_apertura":"09:00:00","funcionamiento_hora_cierre":"21:00:00","local_telefono":"+56123","local_lat":"-34.3940741","local_lng":"-71.16932369999999","funcionamiento_dia":"jueves"},{"fecha":"2026-01-15","local_id":"9080","fk_region":"10","fk_comuna":"219","fk_localidad":"238","local_nombre":"FARMACIA DR. SIMI","comuna_nombre":"LOS ALAMOS","localidad_nombre":"LOS ALAMOS","local_direccion":"IGNACIO CARRERA PINTO 583. LOCAL 2","funcionamiento_hora_apertura":"08:00:00","funcionamiento_hora_cierre":"22:00:00","local_telefono":"+56988229035","local_lat":"-37.627496281420974","local_lng":"-73.46003228477697","funcionamiento_dia":"jueves"},{"fecha":"2026-01-15","local_id":"9175","fk_region":"8","fk_comuna":"162","fk_localidad":"181","local_nombre":"FARMACIA MANZANAL","comuna_nombre":"RANCAGUA","localidad_nombre":"RANCAGUA","local_direccion":"AVENIDA ALBERTO EINSTEIN 857","funcionamiento_hora_apertura":"08:00:00","funcionamiento_hora_cierre":"23:59:00","local_telefono":"","local_lat":"-34.1822","local_lng":"-70.7252199","funcionamiento_dia":"jueves"},{"fecha":"2026-01-15","local_id":"9230","fk_region":"13","fk_comuna":"311","fk_localidad":"382","local_nombre":"FARMACIA CRUZ VERDE","comuna_nombre":"PUERTO MONTT","localidad_nombre":"SECTOR CUARTA TERRAZA","local_direccion":"Monse\u00f1or Ramon Munita 1600","funcionamiento_hora_apertura":"09:00:00","funcionamiento_hora_cierre":"21:00:00","local_telefono":"+56982890076","local_lat":"-41.45439676267741","local_lng":"-72.93450369510649","funcionamiento_dia":"jueves"},{"fecha":"2026-01-15","local_id":"9265","fk_region":"8","fk_comuna":"154","fk_localidad":"173","local_nombre":"FARMACIA ENTRE PUEBLOS","comuna_nombre":"PAREDONES","localidad_nombre":"PAREDONES","local_direccion":"AVENIDA DOCTOR MOORE N 62-A","funcionamiento_hora_apertura":"09:00:00","funcionamiento_hora_cierre":"21:00:00","local_telefono":"+56995815707","local_lat":"-34.6465031","local_lng":"-71.8994386","funcionamiento_dia":"jueves"},